[
  {
    "name": "Cng Petrol Pump",
    "latitude": 22.345042,
    "longitude": 73.202483,
    "city": "Vadodara",
    "state": "Gujarat",
    "source": "atgl"
  },
  {
    "name": "Cng Vadodara",
    "latitude": 22.315289,
    "longitude": 73.164874,
    "city": "Vadodara",
    "state": "Gujarat",
    "source": "atgl"
  },
  {
    "name": "Cng Pump Bharat Petroleum",
    "latitude": 22.234306,
    "longitude": 73.188365,
    "city": "Vadodara",
    "state": "Gujarat",
    "source": "atgl"
  },
  {
    "name": "Cng Pump",
    "latitude": 22.379654,
    "longitude": 73.191663,
    "city": "Vadodara",
    "state": "Gujarat",
    "source": "atgl"
  },
  {
    "name": "Pioneer Petrol Pump",
    "latitude": 22.328256,
    "longitude": 73.262744,
    "city": "vadodara",
    "state": "Gujarat",
    "source": "atgl"
  },
  {
    "name": "Adani Cng",
    "latitude": 22.379562,
    "longitude": 73.155117,
    "city": "Vadodara",
    "state": "Gujarat",
    "source": "atgl"
  },
  {
    "name": "Cng Station",
    "latitude": 23.161916,
    "longitude": 72.588276,
    "city": "Gandhinagar",
    "state": "Gujarat",
    "source": "atgl"
  },
  {
    "name": "Cng Petrol Pump",
    "latitude": 21.298809,
    "longitude": 72.953897,
    "city": "Surat",
    "state": "Gujarat",
    "source": "atgl"
  },
  {
    "name": "Hpcl Petrol Pump",
    "latitude": 21.169096,
    "longitude": 72.794779,
    "city": "Surat",
    "state": "Gujarat",
    "source": "atgl"
  },
  {
    "name": "Cng Indian Oil Petrol Pump",
    "latitude": 22.284186,
    "longitude": 70.769197,
    "city": "Rajkot",
    "state": "Gujarat",
    "source": "atgl"
  },
  {
    "name": "Cng Indian Oil Petrol Pump",
    "latitude": 22.258577,
    "longitude": 70.704029,
    "city": "Rajkot",
    "state": "Gujarat",
    "source": "atgl"
  },
  {
    "name": "Gujarat Gas Cng Station",
    "latitude": 21.750262,
    "longitude": 72.133216,
    "city": "Bhavnagar",
    "state": "Gujarat",
    "source": "atgl"
  },
  {
    "name": "Kedari Petrol Pump",
    "latitude": 18.486548,
    "longitude": 73.898661,
    "city": "Pune",
    "state": "Maharashtra",
    "source": "atgl"
  },
  {
    "name": "Cng Petrol Pump",
    "latitude": 18.59217,
    "longitude": 73.803749,
    "city": "PUNE",
    "state": "Maharashtra",
    "source": "atgl"
  },
  {
    "name": "Bharat Petroleum",
    "latitude": 18.482702,
    "longitude": 73.826623,
    "city": "Pune",
    "state": "Maharashtra",
    "source": "atgl"
  },
  {
    "name": "CNG Station",
    "latitude": 18.482183,
    "longitude": 73.803205,
    "city": "Pune",
    "state": "Maharashtra",
    "source": "atgl"
  },
  {
    "name": "Cng",
    "latitude": 18.630737,
    "longitude": 73.742847,
    "city": "Pune",
    "state": "Maharashtra",
    "source": "atgl"
  },
  {
    "name": "Indian Oil Petrol Cng Pump",
    "latitude": 18.569502,
    "longitude": 73.817207,
    "city": "Pimpri Chinchwad",
    "state": "Maharashtra",
    "source": "atgl"
  },
  {
    "name": "Dudhane Petrol",
    "latitude": 18.46866,
    "longitude": 73.785145,
    "city": "Pune",
    "state": "Maharashtra",
    "source": "atgl"
  },
  {
    "name": "Chandere Cng Station",
    "latitude": 18.552645,
    "longitude": 73.75749,
    "city": "Pune",
    "state": "Maharashtra",
    "source": "atgl"
  },
  {
    "name": "Cng Pump",
    "latitude": 18.646833,
    "longitude": 73.742276,
    "city": "Ravet",
    "state": "Maharashtra",
    "source": "atgl"
  },
  {
    "name": "Gaikwad Cng Station",
    "latitude": 18.532322,
    "longitude": 73.931865,
    "city": "Pune",
    "state": "Maharashtra",
    "source": "atgl"
  },
  {
    "name": "Indian Oil Petrol Pump",
    "latitude": 18.580337,
    "longitude": 73.975254,
    "city": "Wagholi",
    "state": "Maharashtra",
    "source": "atgl"
  },
  {
    "name": "CNG Station",
    "latitude": 18.637415,
    "longitude": 73.849217,
    "city": "pune",
    "state": "Maharashtra",
    "source": "atgl"
  },
  {
    "name": "CNG Station",
    "latitude": 18.59839,
    "longitude": 73.82819,
    "city": "Pune",
    "state": "Maharashtra",
    "source": "atgl"
  },
  {
    "name": "Mngl Cng Pump",
    "latitude": 18.534183,
    "longitude": 73.847651,
    "city": "Pune",
    "state": "Maharashtra",
    "source": "atgl"
  },
  {
    "name": "Bharat Petroleum",
    "latitude": 18.639387,
    "longitude": 73.738335,
    "city": "Pune",
    "state": "Maharashtra",
    "source": "atgl"
  },
  {
    "name": "Hp",
    "latitude": 18.601196,
    "longitude": 73.754348,
    "city": "Pune",
    "state": "Maharashtra",
    "source": "atgl"
  },
  {
    "name": "Hp",
    "latitude": 18.628264,
    "longitude": 73.742393,
    "city": "Pune",
    "state": "Maharashtra",
    "source": "atgl"
  },
  {
    "name": "Rathi Cng Gas Station",
    "latitude": 18.453989,
    "longitude": 73.853487,
    "city": "Pune",
    "state": "Maharashtra",
    "source": "atgl"
  },
  {
    "name": "Dharmavat Petrol Pump",
    "latitude": 18.448715,
    "longitude": 73.904331,
    "city": "Pune",
    "state": "Maharashtra",
    "source": "atgl"
  },
  {
    "name": "Mngl Cng",
    "latitude": 18.585025,
    "longitude": 73.833023,
    "city": "Pune",
    "state": "Maharashtra",
    "source": "atgl"
  },
  {
    "name": "Lmd Cng",
    "latitude": 18.511266,
    "longitude": 73.77095,
    "city": "Pune",
    "state": "Maharashtra",
    "source": "atgl"
  },
  {
    "name": "Pimple Nilakh Cng Pump",
    "latitude": 18.566694,
    "longitude": 73.792555,
    "city": "Pune",
    "state": "Maharashtra",
    "source": "atgl"
  },
  {
    "name": "Indian Oil Pump (Cng Available)",
    "latitude": 18.457775,
    "longitude": 73.829162,
    "city": "Pune",
    "state": "Maharashtra",
    "source": "atgl"
  },
  {
    "name": "Mngl Cng Pump",
    "latitude": 18.603147,
    "longitude": 73.746881,
    "city": "Pune",
    "state": "Maharashtra",
    "source": "atgl"
  }
]
