[
  {
    "name": "Adani Cng Gas Station",
    "latitude": 23.011445,
    "longitude": 72.586437,
    "city": "Ahmedabad",
    "state": "Gujarat",
    "source": "atgl"
  },
  {
    "name": "Cng Adani",
    "latitude": 23.013519,
    "longitude": 72.564403,
    "city": "Ahmedabad",
    "state": "Gujarat",
    "source": "atgl"
  },
  {
    "name": "CNG Station",
    "latitude": 23.057951,
    "longitude": 72.643162,
    "city": "Ahmedabad",
    "state": "Gujarat",
    "source": "atgl"
  },
  {
    "name": "Cng Petrol Pump",
    "latitude": 23.052345,
    "longitude": 72.631946,
    "city": "Ahmedabad",
    "state": "Gujarat",
    "source": "atgl"
  },
  {
    "name": "Petrol Cng Pump",
    "latitude": 23.021968,
    "longitude": 72.650824,
    "city": "Ahmedabad",
    "state": "Gujarat",
    "source": "atgl"
  },
  {
    "name": "Cng Bharat Petroleum",
    "latitude": 23.040089,
    "longitude": 72.57813,
    "city": "Ahmedabad",
    "state": "Gujarat",
    "source": "atgl"
  },
  {
    "name": "Cng Gas Station",
    "latitude": 23.084673,
    "longitude": 72.686259,
    "city": "Ahmedabad",
    "state": "Gujarat",
    "source": "atgl"
  },
  {
    "name": "Cng Stattion",
    "latitude": 22.935932,
    "longitude": 72.49878,
    "city": "Ahmedabad",
    "state": "Gujarat",
    "source": "atgl"
  },
  {
    "name": "Cng And Petrol Pump",
    "latitude": 23.028945,
    "longitude": 72.673433,
    "city": "Ahmedabad",
    "state": "Gujarat",
    "source": "atgl"
  },
  {
    "name": "Cng Station",
    "latitude": 23.161916,
    "longitude": 72.588276,
    "city": "Ahmedabad",
    "state": "Gujarat",
    "source": "atgl"
  },
  {
    "name": "Indian Oil Cng N Petrol",
    "latitude": 23.029281,
    "longitude": 72.475028,
    "city": "Ahmedabad",
    "state": "Gujarat",
    "source": "atgl"
  },
  {
    "name": "Cng Petrol Pump",
    "latitude": 23.026704,
    "longitude": 72.526047,
    "city": "Ahmedabad",
    "state": "Gujarat",
    "source": "atgl"
  },
  {
    "name": "Adani Cng Station",
    "latitude": 22.999159,
    "longitude": 72.603628,
    "city": "Ahmedabad",
    "state": "Gujarat",
    "source": "atgl"
  },
  {
    "name": "Cng Petrol Pump",
    "latitude": 21.298809,
    "longitude": 72.953897,
    "city": "Surat",
    "state": "Gujarat",
    "source": "atgl"
  },
  {
    "name": "Hpcl Petrol Pump",
    "latitude": 21.169096,
    "longitude": 72.794779,
    "city": "Surat",
    "state": "Gujarat",
    "source": "atgl"
  },
  {
    "name": "Cng Indian Oil Petrol Pump",
    "latitude": 22.284186,
    "longitude": 70.769197,
    "city": "Rajkot",
    "state": "Gujarat",
    "source": "atgl"
  },
  {
    "name": "Cng Indian Oil Petrol Pump",
    "latitude": 22.258577,
    "longitude": 70.704029,
    "city": "Rajkot",
    "state": "Gujarat",
    "source": "atgl"
  },
  {
    "name": "CNG Station",
    "latitude": 26.910529,
    "longitude": 80.948698,
    "city": "Lucknow",
    "state": "Uttar Pradesh",
    "source": "atgl"
  },
  {
    "name": "Hp",
    "latitude": 26.936769,
    "longitude": 80.980863,
    "city": "Lucknow",
    "state": "Uttar Pradesh",
    "source": "atgl"
  },
  {
    "name": "CNG Station",
    "latitude": 27.201655,
    "longitude": 78.027893,
    "city": "Agra",
    "state": "Uttar Pradesh",
    "source": "atgl"
  },
  {
    "name": "Bharat Petroleum",
    "latitude": 27.218283,
    "longitude": 78.099432,
    "city": "Agra",
    "state": "Uttar Pradesh",
    "source": "atgl"
  },
  {
    "name": "सरसवती पेटरोल पंप एवं सी.एन.जी. फीलिंग",
    "latitude": 25.26721,
    "longitude": 82.966091,
    "city": "Varanasi",
    "state": "Uttar Pradesh",
    "source": "atgl"
  },
  {
    "name": "Gail India Ltd. Cng Station",
    "latitude": 25.286496,
    "longitude": 82.968651,
    "city": "Varanasi",
    "state": "Uttar Pradesh",
    "source": "atgl"
  },
  {
    "name": "Indian Auto Gas",
    "latitude": 21.18139,
    "longitude": 79.038446,
    "city": "Nagpur",
    "state": "Madhya Pradesh",
    "source": "atgl"
  },
  {
    "name": "CNG Station",
    "latitude": 21.177865,
    "longitude": 79.125278,
    "city": "Nagpur",
    "state": "Madhya Pradesh",
    "source": "atgl"
  },
  {
    "name": "Police Petrol Pump",
    "latitude": 22.732356,
    "longitude": 75.846771,
    "city": "Indore",
    "state": "Madhya Pradesh",
    "source": "atgl"
  },
  {
    "name": "Indian Oil Petrol Pump",
    "latitude": 22.75152,
    "longitude": 75.890762,
    "city": "Indore",
    "state": "Madhya Pradesh",
    "source": "atgl"
  },
  {
    "name": "Cng Gas Station And Petrol Pump",
    "latitude": 22.715431,
    "longitude": 75.841069,
    "city": "Indore",
    "state": "Madhya Pradesh",
    "source": "atgl"
  },
  {
    "name": "CNG Station",
    "latitude": 22.746128,
    "longitude": 75.893793,
    "city": "Indore",
    "state": "Madhya Pradesh",
    "source": "atgl"
  },
  {
    "name": "Indian Oil",
    "latitude": 22.72037,
    "longitude": 75.872283,
    "city": "Indore",
    "state": "Madhya Pradesh",
    "source": "atgl"
  },
  {
    "name": "Bharat Petroleum",
    "latitude": 22.716903,
    "longitude": 75.873126,
    "city": "Indore",
    "state": "Madhya Pradesh",
    "source": "atgl"
  },
  {
    "name": "Hp",
    "latitude": 22.717008,
    "longitude": 75.884285,
    "city": "Indore",
    "state": "Madhya Pradesh",
    "source": "atgl"
  },
  {
    "name": "Indian Oil",
    "latitude": 22.705017,
    "longitude": 75.844265,
    "city": "Indore",
    "state": "Madhya Pradesh",
    "source": "atgl"
  },
  {
    "name": "Hp",
    "latitude": 22.716231,
    "longitude": 75.860244,
    "city": "Indore",
    "state": "Madhya Pradesh",
    "source": "atgl"
  },
  {
    "name": "Hp",
    "latitude": 22.695298,
    "longitude": 75.829621,
    "city": "Indore",
    "state": "Madhya Pradesh",
    "source": "atgl"
  },
  {
    "name": "Indian Oil Petrol Pump",
    "latitude": 22.772818,
    "longitude": 75.902501,
    "city": "Indore",
    "state": "Madhya Pradesh",
    "source": "atgl"
  },
  {
    "name": "Laxmi Petrol Pump",
    "latitude": 22.775362,
    "longitude": 75.902582,
    "city": "Indore",
    "state": "Madhya Pradesh",
    "source": "atgl"
  },
  {
    "name": "Gati Corporation Pump",
    "latitude": 22.778029,
    "longitude": 75.903345,
    "city": "Indore",
    "state": "Madhya Pradesh",
    "source": "atgl"
  },
  {
    "name": "H.S. Road Carrier Petrol Pump",
    "latitude": 22.678499,
    "longitude": 75.877801,
    "city": "Indore",
    "state": "Madhya Pradesh",
    "source": "atgl"
  },
  {
    "name": "Madhur Fuel Station",
    "latitude": 22.681914,
    "longitude": 75.861174,
    "city": "Indore",
    "state": "Madhya Pradesh",
    "source": "atgl"
  },
  {
    "name": "Shakti Fuel Station",
    "latitude": 22.689488,
    "longitude": 75.887981,
    "city": "Indore",
    "state": "Madhya Pradesh",
    "source": "atgl"
  },
  {
    "name": "Poss Fuel Station",
    "latitude": 22.685143,
    "longitude": 75.911322,
    "city": "Indore",
    "state": "Madhya Pradesh",
    "source": "atgl"
  },
  {
    "name": "Sai Filling Station",
    "latitude": 22.705656,
    "longitude": 75.825561,
    "city": "Indore",
    "state": "Madhya Pradesh",
    "source": "atgl"
  },
  {
    "name": "CNG Station",
    "latitude": 30.64012,
    "longitude": 76.804981,
    "city": "Chandigarh",
    "state": "Chandigarh",
    "source": "atgl"
  },
  {
    "name": "Adani Cng Station",
    "latitude": 28.400755,
    "longitude": 77.374226,
    "city": "Faridabad",
    "state": "Haryana",
    "source": "atgl"
  },
  {
    "name": "Hp",
    "latitude": 28.494525,
    "longitude": 77.303591,
    "city": "Faridabad",
    "state": "Delhi",
    "source": "atgl"
  },
  {
    "name": "Igl",
    "latitude": 28.547714,
    "longitude": 77.255391,
    "city": "Faridabad",
    "state": "Delhi",
    "source": "atgl"
  },
  {
    "name": "Indraprastha Gas Limited Cng Station",
    "latitude": 28.525984,
    "longitude": 77.37028,
    "city": "Faridabad",
    "state": "Haryana",
    "source": "atgl"
  },
  {
    "name": "Igl",
    "latitude": 28.53093,
    "longitude": 77.232248,
    "city": "Faridabad",
    "state": "Delhi",
    "source": "atgl"
  },
  {
    "name": "Adani Cng Gas Station",
    "latitude": 28.399023,
    "longitude": 77.350323,
    "city": "Faridabad",
    "state": "Haryana",
    "source": "atgl"
  },
  {
    "name": "Indian Oil",
    "latitude": 28.504343,
    "longitude": 77.171999,
    "city": "Gurugram",
    "state": "Delhi",
    "source": "atgl"
  },
  {
    "name": "Cng Fuel Station",
    "latitude": 28.595924,
    "longitude": 77.029008,
    "city": "Gurugram",
    "state": "Delhi",
    "source": "atgl"
  },
  {
    "name": "Indraprastha Cng Gas Station Pump",
    "latitude": 28.575236,
    "longitude": 77.067756,
    "city": "Gurugram",
    "state": "Delhi",
    "source": "atgl"
  },
  {
    "name": "Hcg Cng Station",
    "latitude": 28.431899,
    "longitude": 77.099737,
    "city": "Gurugram",
    "state": "Delhi",
    "source": "atgl"
  },
  {
    "name": "CNG Station",
    "latitude": 28.521758,
    "longitude": 77.166746,
    "city": "Gurugram",
    "state": "Delhi",
    "source": "atgl"
  },
  {
    "name": "Igl",
    "latitude": 28.572138,
    "longitude": 77.137474,
    "city": "Gurugram",
    "state": "Delhi",
    "source": "atgl"
  },
  {
    "name": "Igl",
    "latitude": 28.569962,
    "longitude": 77.196442,
    "city": "Gurugram",
    "state": "Delhi",
    "source": "atgl"
  },
  {
    "name": "Cng Pump",
    "latitude": 28.558454,
    "longitude": 77.106734,
    "city": "Gurugram",
    "state": "Delhi",
    "source": "atgl"
  },
  {
    "name": "Cng Fuel Station",
    "latitude": 28.59064,
    "longitude": 77.03691,
    "city": "Gurugram",
    "state": "Delhi",
    "source": "atgl"
  },
  {
    "name": "CNG Station",
    "latitude": 28.538545,
    "longitude": 77.13264,
    "city": "Gurugram",
    "state": "Delhi",
    "source": "atgl"
  },
  {
    "name": "Igl",
    "latitude": 28.553235,
    "longitude": 77.180472,
    "city": "Gurugram",
    "state": "Delhi",
    "source": "atgl"
  },
  {
    "name": "Indraprastha Gas Station",
    "latitude": 28.567528,
    "longitude": 77.175636,
    "city": "New Delhi",
    "state": "Delhi",
    "source": "atgl"
  },
  {
    "name": "CNG Station",
    "latitude": 28.486936,
    "longitude": 77.187828,
    "city": "Gurugram",
    "state": "Delhi",
    "source": "atgl"
  },
  {
    "name": "Indian Oil",
    "latitude": 28.564706,
    "longitude": 77.177629,
    "city": "Gurugram",
    "state": "Delhi",
    "source": "atgl"
  },
  {
    "name": "CNG Station",
    "latitude": 28.458053,
    "longitude": 77.047127,
    "city": "Gurugram",
    "state": "Delhi",
    "source": "atgl"
  },
  {
    "name": "Haryana City Gas (Hcg) Cng Pump",
    "latitude": 28.452132,
    "longitude": 77.075083,
    "city": "Gurgaon",
    "state": "Delhi",
    "source": "atgl"
  },
  {
    "name": "Indian Oil",
    "latitude": 28.570773,
    "longitude": 77.163403,
    "city": "Gurugram",
    "state": "Delhi",
    "source": "atgl"
  },
  {
    "name": "Igl Cng Pump",
    "latitude": 28.597112,
    "longitude": 77.058786,
    "city": "Sector 5 Dwarka, New Delhi",
    "state": "Delhi",
    "source": "atgl"
  },
  {
    "name": "Hcg",
    "latitude": 28.449699,
    "longitude": 77.091059,
    "city": "Gurugram",
    "state": "Delhi",
    "source": "atgl"
  },
  {
    "name": "CNG Station",
    "latitude": 28.425844,
    "longitude": 77.025872,
    "city": "Gurugram",
    "state": "Delhi",
    "source": "atgl"
  },
  {
    "name": "CNG Station",
    "latitude": 28.427369,
    "longitude": 77.023342,
    "city": "Gurugram",
    "state": "Delhi",
    "source": "atgl"
  },
  {
    "name": "CNG Station",
    "latitude": 28.428086,
    "longitude": 77.021113,
    "city": "Gurugram",
    "state": "Delhi",
    "source": "atgl"
  },
  {
    "name": "CNG Station",
    "latitude": 28.439833,
    "longitude": 77.00361,
    "city": "Gurugram",
    "state": "Delhi",
    "source": "atgl"
  },
  {
    "name": "CNG Station",
    "latitude": 28.449793,
    "longitude": 76.99687,
    "city": "Gurugram",
    "state": "Delhi",
    "source": "atgl"
  },
  {
    "name": "Igl",
    "latitude": 28.406072,
    "longitude": 77.043148,
    "city": "Gurugram",
    "state": "Delhi",
    "source": "atgl"
  },
  {
    "name": "CNG Station",
    "latitude": 28.537558,
    "longitude": 77.153235,
    "city": "Gurugram",
    "state": "Delhi",
    "source": "atgl"
  },
  {
    "name": "Kedari Petrol Pump",
    "latitude": 18.486548,
    "longitude": 73.898661,
    "city": "Pune",
    "state": "Maharashtra",
    "source": "atgl"
  },
  {
    "name": "Cng Petrol Pump",
    "latitude": 18.59217,
    "longitude": 73.803749,
    "city": "PUNE",
    "state": "Maharashtra",
    "source": "atgl"
  },
  {
    "name": "Bharat Petroleum",
    "latitude": 18.482702,
    "longitude": 73.826623,
    "city": "Pune",
    "state": "Maharashtra",
    "source": "atgl"
  },
  {
    "name": "CNG Station",
    "latitude": 18.482183,
    "longitude": 73.803205,
    "city": "Pune",
    "state": "Maharashtra",
    "source": "atgl"
  },
  {
    "name": "Cng",
    "latitude": 18.630737,
    "longitude": 73.742847,
    "city": "Pune",
    "state": "Maharashtra",
    "source": "atgl"
  },
  {
    "name": "Indian Oil Petrol Cng Pump",
    "latitude": 18.569502,
    "longitude": 73.817207,
    "city": "Pimpri Chinchwad",
    "state": "Maharashtra",
    "source": "atgl"
  },
  {
    "name": "Dudhane Petrol",
    "latitude": 18.46866,
    "longitude": 73.785145,
    "city": "Pune",
    "state": "Maharashtra",
    "source": "atgl"
  },
  {
    "name": "Chandere Cng Station",
    "latitude": 18.552645,
    "longitude": 73.75749,
    "city": "Pune",
    "state": "Maharashtra",
    "source": "atgl"
  },
  {
    "name": "Cng Pump",
    "latitude": 18.646833,
    "longitude": 73.742276,
    "city": "Ravet",
    "state": "Maharashtra",
    "source": "atgl"
  },
  {
    "name": "Gaikwad Cng Station",
    "latitude": 18.532322,
    "longitude": 73.931865,
    "city": "Pune",
    "state": "Maharashtra",
    "source": "atgl"
  },
  {
    "name": "Indian Oil Petrol Pump",
    "latitude": 18.580337,
    "longitude": 73.975254,
    "city": "Wagholi",
    "state": "Maharashtra",
    "source": "atgl"
  },
  {
    "name": "CNG Station",
    "latitude": 18.637415,
    "longitude": 73.849217,
    "city": "pune",
    "state": "Maharashtra",
    "source": "atgl"
  },
  {
    "name": "CNG Station",
    "latitude": 18.59839,
    "longitude": 73.82819,
    "city": "Pune",
    "state": "Maharashtra",
    "source": "atgl"
  },
  {
    "name": "Mngl Cng Pump",
    "latitude": 18.534183,
    "longitude": 73.847651,
    "city": "Pune",
    "state": "Maharashtra",
    "source": "atgl"
  },
  {
    "name": "Bharat Petroleum",
    "latitude": 18.639387,
    "longitude": 73.738335,
    "city": "Pune",
    "state": "Maharashtra",
    "source": "atgl"
  },
  {
    "name": "Hp",
    "latitude": 18.601196,
    "longitude": 73.754348,
    "city": "Pune",
    "state": "Maharashtra",
    "source": "atgl"
  },
  {
    "name": "Hp",
    "latitude": 18.628264,
    "longitude": 73.742393,
    "city": "Pune",
    "state": "Maharashtra",
    "source": "atgl"
  },
  {
    "name": "Rathi Cng Gas Station",
    "latitude": 18.453989,
    "longitude": 73.853487,
    "city": "Pune",
    "state": "Maharashtra",
    "source": "atgl"
  },
  {
    "name": "Dharmavat Petrol Pump",
    "latitude": 18.448715,
    "longitude": 73.904331,
    "city": "Pune",
    "state": "Maharashtra",
    "source": "atgl"
  },
  {
    "name": "Mngl Cng",
    "latitude": 18.585025,
    "longitude": 73.833023,
    "city": "Pune",
    "state": "Maharashtra",
    "source": "atgl"
  },
  {
    "name": "Lmd Cng",
    "latitude": 18.511266,
    "longitude": 73.77095,
    "city": "Pune",
    "state": "Maharashtra",
    "source": "atgl"
  },
  {
    "name": "Pimple Nilakh Cng Pump",
    "latitude": 18.566694,
    "longitude": 73.792555,
    "city": "Pune",
    "state": "Maharashtra",
    "source": "atgl"
  },
  {
    "name": "Indian Oil Pump (Cng Available)",
    "latitude": 18.457775,
    "longitude": 73.829162,
    "city": "Pune",
    "state": "Maharashtra",
    "source": "atgl"
  },
  {
    "name": "Mngl Cng Pump",
    "latitude": 18.603147,
    "longitude": 73.746881,
    "city": "Pune",
    "state": "Maharashtra",
    "source": "atgl"
  },
  {
    "name": "Indian Oil",
    "latitude": 27.042715,
    "longitude": 75.760486,
    "city": "Jaipur",
    "state": "Rajasthan",
    "source": "atgl"
  },
  {
    "name": "Indian Oil",
    "latitude": 26.872674,
    "longitude": 75.820837,
    "city": "Jaipur",
    "state": "Madhya Pradesh",
    "source": "atgl"
  }
]
