[
  {
    "name": "Lt. Col. Shaheed Prakash Patil",
    "latitude": 18.457583,
    "longitude": 73.828944,
    "city": "Ambegaon",
    "state": "Maharashtra",
    "source": "mngl"
  },
  {
    "name": "Vardhman Petrol Depot",
    "latitude": 18.482972,
    "longitude": 73.80225,
    "city": "Warje",
    "state": "Maharashtra",
    "source": "mngl"
  },
  {
    "name": "Chaudhary Cng",
    "latitude": 18.482278,
    "longitude": 73.803056,
    "city": "Warje",
    "state": "Maharashtra",
    "source": "mngl"
  },
  {
    "name": "Sai Sayaji Service",
    "latitude": 18.507218,
    "longitude": 73.80262,
    "city": "Paud Road",
    "state": "Maharashtra",
    "source": "mngl"
  },
  {
    "name": "Lmd Cng",
    "latitude": 18.511278,
    "longitude": 73.771028,
    "city": "Bavdhan",
    "state": "Maharashtra",
    "source": "mngl"
  },
  {
    "name": "E-Way Siddhivinayak",
    "latitude": 18.639472,
    "longitude": 73.738417,
    "city": "Punawale",
    "state": "Maharashtra",
    "source": "mngl"
  },
  {
    "name": "Sai Expressway Service",
    "latitude": 18.628167,
    "longitude": 73.742861,
    "city": "Tathawade",
    "state": "Maharashtra",
    "source": "mngl"
  },
  {
    "name": "Sk Enterprise",
    "latitude": 18.630619,
    "longitude": 73.74292,
    "city": "tathawade",
    "state": "Maharashtra",
    "source": "mngl"
  },
  {
    "name": "Balwadkar Auto Services",
    "latitude": 18.601361,
    "longitude": 73.754167,
    "city": "Wakad",
    "state": "Maharashtra",
    "source": "mngl"
  },
  {
    "name": "Shinde Petroleum",
    "latitude": 18.668278,
    "longitude": 73.727944,
    "city": "Kiwale",
    "state": "Maharashtra",
    "source": "mngl"
  },
  {
    "name": "Bp Co Expressway",
    "latitude": 18.712222,
    "longitude": 73.65225,
    "city": "Parandewadi",
    "state": "Maharashtra",
    "source": "mngl"
  },
  {
    "name": "Progrowth Enterprises",
    "latitude": 18.585056,
    "longitude": 73.833194,
    "city": "Dapodi",
    "state": "Maharashtra",
    "source": "mngl"
  },
  {
    "name": "Saigauri Petroleum",
    "latitude": 18.598417,
    "longitude": 73.828111,
    "city": "Kasarwadi",
    "state": "Maharashtra",
    "source": "mngl"
  },
  {
    "name": "Pimple Petroleum",
    "latitude": 18.63285,
    "longitude": 73.799508,
    "city": "Pimpri",
    "state": "Maharashtra",
    "source": "mngl"
  },
  {
    "name": "Shree Balaji",
    "latitude": 18.664667,
    "longitude": 73.770278,
    "city": "Nigadi",
    "state": "Maharashtra",
    "source": "mngl"
  },
  {
    "name": "Abc India Ltd",
    "latitude": 18.719,
    "longitude": 73.669917,
    "city": "Talegaon",
    "state": "Maharashtra",
    "source": "mngl"
  },
  {
    "name": "Goodwill Enterprise",
    "latitude": 18.619583,
    "longitude": 73.829944,
    "city": "Bhosari",
    "state": "Maharashtra",
    "source": "mngl"
  },
  {
    "name": "Swamy Samarth Service Station&#039;",
    "latitude": 18.616611,
    "longitude": 73.842972,
    "city": "Bhosari",
    "state": "Maharashtra",
    "source": "mngl"
  },
  {
    "name": "Sarhaan Petroleum",
    "latitude": 18.627583,
    "longitude": 73.852722,
    "city": "Bhosari",
    "state": "Maharashtra",
    "source": "mngl"
  },
  {
    "name": "D R Gavhane Petroleum",
    "latitude": 18.624643,
    "longitude": 73.860194,
    "city": "Bhosari",
    "state": "Maharashtra",
    "source": "mngl"
  },
  {
    "name": "Kajale And Sons",
    "latitude": 18.658639,
    "longitude": 73.849389,
    "city": "Moshi",
    "state": "Maharashtra",
    "source": "mngl"
  },
  {
    "name": "Samruddhi Cng",
    "latitude": 18.73825,
    "longitude": 73.857806,
    "city": "Nanekarwadi",
    "state": "Maharashtra",
    "source": "mngl"
  },
  {
    "name": "Devendra Autolines",
    "latitude": 18.737806,
    "longitude": 73.858139,
    "city": "Nanekarwadi",
    "state": "Maharashtra",
    "source": "mngl"
  },
  {
    "name": "Chakan Petrol Depot",
    "latitude": 18.760917,
    "longitude": 73.859806,
    "city": "Chakan",
    "state": "Maharashtra",
    "source": "mngl"
  },
  {
    "name": "Akshay Kiran Petroleum",
    "latitude": 18.773116,
    "longitude": 73.868494,
    "city": "Chakan",
    "state": "Maharashtra",
    "source": "mngl"
  },
  {
    "name": "Highway Petroleum",
    "latitude": 18.507083,
    "longitude": 73.885528,
    "city": "Pool Gate",
    "state": "Maharashtra",
    "source": "mngl"
  },
  {
    "name": "Swamy Samarth Service Station&#039;",
    "latitude": 18.499056,
    "longitude": 73.920472,
    "city": "Hadpsar",
    "state": "Maharashtra",
    "source": "mngl"
  },
  {
    "name": "Tekawade Petroleum",
    "latitude": 18.499222,
    "longitude": 73.949,
    "city": "Hadapsar",
    "state": "Maharashtra",
    "source": "mngl"
  },
  {
    "name": "Balaji Cng Centre",
    "latitude": 18.498111,
    "longitude": 73.956417,
    "city": "Hadapsar",
    "state": "Maharashtra",
    "source": "mngl"
  },
  {
    "name": "Shivaji Service Station",
    "latitude": 18.497284,
    "longitude": 73.962085,
    "city": "Manjari",
    "state": "Maharashtra",
    "source": "mngl"
  },
  {
    "name": "Urja Fuel",
    "latitude": 18.572083,
    "longitude": 73.954806,
    "city": "Wagholi",
    "state": "Maharashtra",
    "source": "mngl"
  },
  {
    "name": "Mngl Shivajinagar",
    "latitude": 18.534194,
    "longitude": 73.847639,
    "city": "Shivajinagar",
    "state": "Maharashtra",
    "source": "mngl"
  },
  {
    "name": "Bp Pune Rto",
    "latitude": 18.529556,
    "longitude": 73.863111,
    "city": "Shivajinagar",
    "state": "Maharashtra",
    "source": "mngl"
  },
  {
    "name": "Sangoi Service Station",
    "latitude": 18.530667,
    "longitude": 73.847167,
    "city": "Shivajinagar",
    "state": "Maharashtra",
    "source": "mngl"
  },
  {
    "name": "Sarswati Petroleum",
    "latitude": 18.500278,
    "longitude": 73.866,
    "city": "Swargate",
    "state": "Maharashtra",
    "source": "mngl"
  },
  {
    "name": "Coco Mukundnagar",
    "latitude": 18.495917,
    "longitude": 73.869194,
    "city": "Mukundnagar",
    "state": "Maharashtra",
    "source": "mngl"
  },
  {
    "name": "Jyoti Petroleum",
    "latitude": 18.49225,
    "longitude": 73.834056,
    "city": "Sinhgad Road",
    "state": "Maharashtra",
    "source": "mngl"
  },
  {
    "name": "Mitali Service Station",
    "latitude": 18.482556,
    "longitude": 73.82675,
    "city": "Sinhgad Road",
    "state": "Maharashtra",
    "source": "mngl"
  },
  {
    "name": "Shri Sai Petroleum",
    "latitude": 18.590111,
    "longitude": 73.956306,
    "city": "Lohegaon",
    "state": "Maharashtra",
    "source": "mngl"
  },
  {
    "name": "Mauli Petroleum",
    "latitude": 18.613013,
    "longitude": 73.941378,
    "city": "Lohegaon",
    "state": "Maharashtra",
    "source": "mngl"
  },
  {
    "name": "Gaikwad Cng",
    "latitude": 18.533583,
    "longitude": 73.914889,
    "city": "Mundhwa",
    "state": "Maharashtra",
    "source": "mngl"
  },
  {
    "name": "Lonkar Cng Station",
    "latitude": 18.53225,
    "longitude": 73.932111,
    "city": "Mundhwa",
    "state": "Maharashtra",
    "source": "mngl"
  },
  {
    "name": "Rathi Cng Station",
    "latitude": 18.45425,
    "longitude": 73.8535,
    "city": "Katraj",
    "state": "Maharashtra",
    "source": "mngl"
  },
  {
    "name": "S Square Cng Service Station",
    "latitude": 18.468361,
    "longitude": 73.851944,
    "city": "Dhankavadi",
    "state": "Maharashtra",
    "source": "mngl"
  },
  {
    "name": "Vitthal Petroleum",
    "latitude": 18.481,
    "longitude": 73.954861,
    "city": "Fursungi",
    "state": "Maharashtra",
    "source": "mngl"
  },
  {
    "name": "Tilakraj Cng Station",
    "latitude": 18.464306,
    "longitude": 73.952611,
    "city": "Undri",
    "state": "Maharashtra",
    "source": "mngl"
  },
  {
    "name": "Dharmavat Petroleum",
    "latitude": 18.448917,
    "longitude": 73.904389,
    "city": "Pisoli",
    "state": "Maharashtra",
    "source": "mngl"
  },
  {
    "name": "Sheetal Petroleum",
    "latitude": 18.469111,
    "longitude": 73.888806,
    "city": "Kondhwa",
    "state": "Maharashtra",
    "source": "mngl"
  },
  {
    "name": "Ishwar Service Station",
    "latitude": 18.484167,
    "longitude": 73.884167,
    "city": "Lullanagar",
    "state": "Maharashtra",
    "source": "mngl"
  },
  {
    "name": "Vighnaharta Cng Filling Station",
    "latitude": 18.663111,
    "longitude": 73.789278,
    "city": "Akurdi",
    "state": "Maharashtra",
    "source": "mngl"
  },
  {
    "name": "Afexco Petroleum",
    "latitude": 18.641778,
    "longitude": 73.822528,
    "city": "Pimpri",
    "state": "Maharashtra",
    "source": "mngl"
  },
  {
    "name": "Mngl Ms",
    "latitude": 18.664028,
    "longitude": 73.8265,
    "city": "Chikhali",
    "state": "Maharashtra",
    "source": "mngl"
  },
  {
    "name": "Bhosale Cng Pump",
    "latitude": 18.662,
    "longitude": 73.812056,
    "city": "Chikhali",
    "state": "Maharashtra",
    "source": "mngl"
  },
  {
    "name": "Regal",
    "latitude": 18.682444,
    "longitude": 73.826,
    "city": "Alandi Moshi Road",
    "state": "Maharashtra",
    "source": "mngl"
  },
  {
    "name": "Bahirat Patil Cng Station",
    "latitude": 18.64675,
    "longitude": 73.742167,
    "city": "Ravet",
    "state": "Maharashtra",
    "source": "mngl"
  },
  {
    "name": "Nrusinha Petroleum",
    "latitude": 18.624389,
    "longitude": 73.758167,
    "city": "Ravet",
    "state": "Maharashtra",
    "source": "mngl"
  },
  {
    "name": "Shiv Parvati Petroleum",
    "latitude": 18.61275,
    "longitude": 73.765944,
    "city": "Dange Chowk",
    "state": "Maharashtra",
    "source": "mngl"
  },
  {
    "name": "Samarth Service Station",
    "latitude": 18.590639,
    "longitude": 73.74725,
    "city": "Hinjewadi",
    "state": "Maharashtra",
    "source": "mngl"
  },
  {
    "name": "Rajlaxmi Petrohub",
    "latitude": 18.594639,
    "longitude": 73.729361,
    "city": "Hinjewadi",
    "state": "Maharashtra",
    "source": "mngl"
  },
  {
    "name": "Vimal Cng",
    "latitude": 18.60325,
    "longitude": 73.746917,
    "city": "Wakad",
    "state": "Maharashtra",
    "source": "mngl"
  },
  {
    "name": "Rajmudra Petroleum",
    "latitude": 18.612667,
    "longitude": 73.717333,
    "city": "Marunje",
    "state": "Maharashtra",
    "source": "mngl"
  },
  {
    "name": "Jadhav Patil Petroleum",
    "latitude": 18.617559,
    "longitude": 73.707653,
    "city": "Nere Dattawadi",
    "state": "Maharashtra",
    "source": "mngl"
  },
  {
    "name": "Bd Petroleum",
    "latitude": 18.740222,
    "longitude": 73.906917,
    "city": "Bhose",
    "state": "Maharashtra",
    "source": "mngl"
  },
  {
    "name": "Shree Swamy Samarth Auto Center",
    "latitude": 18.759444,
    "longitude": 73.83625,
    "city": "CHakan",
    "state": "Maharashtra",
    "source": "mngl"
  },
  {
    "name": "Mahadevi Petrol Depot",
    "latitude": 18.759111,
    "longitude": 73.828778,
    "city": "Chakan",
    "state": "Maharashtra",
    "source": "mngl"
  },
  {
    "name": "Bhama Petroleum",
    "latitude": 18.767069,
    "longitude": 73.855375,
    "city": "Chakan",
    "state": "Maharashtra",
    "source": "mngl"
  },
  {
    "name": "Shubham Petrol Depot",
    "latitude": 18.754056,
    "longitude": 73.80025,
    "city": "Chakan",
    "state": "Maharashtra",
    "source": "mngl"
  },
  {
    "name": "Harekrishna Petroleum",
    "latitude": 18.74,
    "longitude": 73.745333,
    "city": "Indori",
    "state": "Maharashtra",
    "source": "mngl"
  },
  {
    "name": "Balaji Enterprise",
    "latitude": 18.733694,
    "longitude": 73.6525,
    "city": "Talegaon",
    "state": "Maharashtra",
    "source": "mngl"
  },
  {
    "name": "Khandge Service Station",
    "latitude": 18.724306,
    "longitude": 73.681806,
    "city": "Talegaon",
    "state": "Maharashtra",
    "source": "mngl"
  },
  {
    "name": "Sai Samartha",
    "latitude": 18.569556,
    "longitude": 73.817306,
    "city": "Sangvi",
    "state": "Maharashtra",
    "source": "mngl"
  },
  {
    "name": "Om Sai Ram Fuel Centre",
    "latitude": 18.592194,
    "longitude": 73.803389,
    "city": "Pimple Saudagar",
    "state": "Maharashtra",
    "source": "mngl"
  },
  {
    "name": "Jagtap Patil Petroleum",
    "latitude": 18.597083,
    "longitude": 73.812361,
    "city": "Pimple Gurav",
    "state": "Maharashtra",
    "source": "mngl"
  },
  {
    "name": "Yuvansh Gas Station",
    "latitude": 18.447556,
    "longitude": 73.820556,
    "city": "Narhe",
    "state": "Maharashtra",
    "source": "mngl"
  },
  {
    "name": "Jai Guru Petroleum",
    "latitude": 18.712806,
    "longitude": 73.797722,
    "city": "Nigoje",
    "state": "Maharashtra",
    "source": "mngl"
  },
  {
    "name": "Maulikrupa Enterprise (Dodo)",
    "latitude": 18.677514,
    "longitude": 73.859871,
    "city": "Moshi",
    "state": "Maharashtra",
    "source": "mngl"
  },
  {
    "name": "Shripati Cng",
    "latitude": 18.566816,
    "longitude": 73.792432,
    "city": "Pimple Nilakh",
    "state": "Maharashtra",
    "source": "mngl"
  },
  {
    "name": "Magar Fuel Station",
    "latitude": 18.488291,
    "longitude": 73.932187,
    "city": "Sasanenagar",
    "state": "Maharashtra",
    "source": "mngl"
  },
  {
    "name": "Maruti Petroleum",
    "latitude": 18.789709,
    "longitude": 73.787963,
    "city": "Chakan",
    "state": "Maharashtra",
    "source": "mngl"
  },
  {
    "name": "Bp Police Welfare",
    "latitude": 18.54376,
    "longitude": 73.824493,
    "city": "Baner",
    "state": "Maharashtra",
    "source": "mngl"
  },
  {
    "name": "Sant Tukaram Petroleum",
    "latitude": 18.70849,
    "longitude": 73.779282,
    "city": "Moshi",
    "state": "Maharashtra",
    "source": "mngl"
  },
  {
    "name": "Gawade Patil Petroleum",
    "latitude": 18.669844,
    "longitude": 73.918895,
    "city": "Alandi",
    "state": "Maharashtra",
    "source": "mngl"
  },
  {
    "name": "Mahalaxmi Petroleum",
    "latitude": 18.732986,
    "longitude": 73.667558,
    "city": "Talegaon",
    "state": "Maharashtra",
    "source": "mngl"
  },
  {
    "name": "Venketshwara Petroleum",
    "latitude": 18.545099,
    "longitude": 73.935476,
    "city": "Kharadi",
    "state": "Maharashtra",
    "source": "mngl"
  },
  {
    "name": "Gaikwad Petroleum",
    "latitude": 18.703818,
    "longitude": 73.848367,
    "city": "Chimbli",
    "state": "Maharashtra",
    "source": "mngl"
  },
  {
    "name": "Mngl - Ganesh Enterprises Cng",
    "latitude": 18.468692,
    "longitude": 73.859262,
    "city": "KK Market",
    "state": "Maharashtra",
    "source": "mngl"
  },
  {
    "name": "Mngl - Radhai Cng",
    "latitude": 18.701128,
    "longitude": 73.847792,
    "city": "Chimbli",
    "state": "Maharashtra",
    "source": "mngl"
  },
  {
    "name": "Mngl - Dattaguru Cng",
    "latitude": 18.721896,
    "longitude": 73.852052,
    "city": "Kuruli",
    "state": "Maharashtra",
    "source": "mngl"
  },
  {
    "name": "Mngl - Kamthe Patil Cng",
    "latitude": 18.442268,
    "longitude": 73.894081,
    "city": "Yewalewadi",
    "state": "Maharashtra",
    "source": "mngl"
  },
  {
    "name": "Jay Ganesh Petro Station",
    "latitude": 18.458847,
    "longitude": 73.933644,
    "city": "Handewadi",
    "state": "Maharashtra",
    "source": "mngl"
  },
  {
    "name": "Sathe Petroleum",
    "latitude": 18.597519,
    "longitude": 73.91343,
    "city": "Lohegaon",
    "state": "Maharashtra",
    "source": "mngl"
  },
  {
    "name": "Tuljabhavani Petroleum",
    "latitude": 18.674752,
    "longitude": 73.882987,
    "city": "Moshi alandi Road",
    "state": "Maharashtra",
    "source": "mngl"
  },
  {
    "name": "Gundhare Patil Petroleum",
    "latitude": 18.673438,
    "longitude": 73.91017,
    "city": "Alandi Markal Road",
    "state": "Maharashtra",
    "source": "mngl"
  },
  {
    "name": "Laxmi Petroleum",
    "latitude": 18.57808,
    "longitude": 73.716092,
    "city": "Maan",
    "state": "Maharashtra",
    "source": "mngl"
  },
  {
    "name": "Shitole Petroleum",
    "latitude": 18.578807,
    "longitude": 73.815118,
    "city": "Navi Sangvi",
    "state": "Maharashtra",
    "source": "mngl"
  },
  {
    "name": "Shri Nageshwar Petroleum",
    "latitude": 18.679497,
    "longitude": 73.836888,
    "city": "Moshi",
    "state": "Maharashtra",
    "source": "mngl"
  },
  {
    "name": "Rahee Petroleum",
    "latitude": 18.66648,
    "longitude": 73.940658,
    "city": "Solu",
    "state": "Maharashtra",
    "source": "mngl"
  },
  {
    "name": "Mahalaxmi Energy Services",
    "latitude": 18.653766,
    "longitude": 73.733573,
    "city": "Ravet",
    "state": "Maharashtra",
    "source": "mngl"
  },
  {
    "name": "Mngl- Jay Ganesh Enterprises",
    "latitude": 18.687447,
    "longitude": 73.807964,
    "city": "Chikhali",
    "state": "Maharashtra",
    "source": "mngl"
  },
  {
    "name": "Lokeseva Petroleum",
    "latitude": 18.663514,
    "longitude": 73.81013,
    "city": "Chikhali",
    "state": "Maharashtra",
    "source": "mngl"
  },
  {
    "name": "Mngl -Balewadi Cng",
    "latitude": 18.574131,
    "longitude": 73.771814,
    "city": "Balewadi",
    "state": "Maharashtra",
    "source": "mngl"
  },
  {
    "name": "Guruji Petroleum",
    "latitude": 18.740571,
    "longitude": 73.90788,
    "city": "Bhose",
    "state": "Maharashtra",
    "source": "mngl"
  },
  {
    "name": "Katraj Petroleum",
    "latitude": 18.44299,
    "longitude": 73.859849,
    "city": "Katraj",
    "state": "Maharashtra",
    "source": "mngl"
  },
  {
    "name": "Famous Auto Centre",
    "latitude": 18.527203,
    "longitude": 73.842523,
    "city": "Shivajinagar",
    "state": "Maharashtra",
    "source": "mngl"
  },
  {
    "name": "Jaihind Highway Service Station",
    "latitude": 18.638723,
    "longitude": 73.795803,
    "city": "Chinchwad",
    "state": "Maharashtra",
    "source": "mngl"
  },
  {
    "name": "Lonkar Petroleum",
    "latitude": 18.526696,
    "longitude": 73.954481,
    "city": "Lonkar Wasti",
    "state": "Maharashtra",
    "source": "mngl"
  },
  {
    "name": "Sai Krupa Services",
    "latitude": 18.644377,
    "longitude": 73.745825,
    "city": "Ravet",
    "state": "Maharashtra",
    "source": "mngl"
  },
  {
    "name": "Nanekar Cng Station",
    "latitude": 18.754795,
    "longitude": 73.854857,
    "city": "Nanekarwadi, Chakan",
    "state": "Maharashtra",
    "source": "mngl"
  },
  {
    "name": "Mauli Petroleum",
    "latitude": 18.694369,
    "longitude": 73.889173,
    "city": "Hanumanwadi, Kelgaon",
    "state": "Maharashtra",
    "source": "mngl"
  },
  {
    "name": "Shivshakti Group Of Petroleum",
    "latitude": 18.747644,
    "longitude": 73.876863,
    "city": "Kadachiwadi, Chakan",
    "state": "Maharashtra",
    "source": "mngl"
  },
  {
    "name": "D.C. Petroleum",
    "latitude": 18.771876,
    "longitude": 73.845418,
    "city": "Biradwadi, Chakan",
    "state": "Maharashtra",
    "source": "mngl"
  },
  {
    "name": "Shri Gajanan Petroleum",
    "latitude": 18.510097,
    "longitude": 73.961722,
    "city": "Manjri",
    "state": "Maharashtra",
    "source": "mngl"
  },
  {
    "name": "Ladkat Brothers Petroleum",
    "latitude": 18.50829,
    "longitude": 73.868502,
    "city": "Timber Market",
    "state": "Maharashtra",
    "source": "mngl"
  },
  {
    "name": "Balkrishna Enterprises",
    "latitude": 18.534054,
    "longitude": 73.92059,
    "city": "Mundhwa",
    "state": "Maharashtra",
    "source": "mngl"
  },
  {
    "name": "Lakshmi Cng Station",
    "latitude": 18.637507,
    "longitude": 73.849128,
    "city": "Bhosari",
    "state": "Maharashtra",
    "source": "mngl"
  },
  {
    "name": "Jadhav Brothers Cng",
    "latitude": 18.658232,
    "longitude": 73.777756,
    "city": "Nigdi",
    "state": "Maharashtra",
    "source": "mngl"
  },
  {
    "name": "Radhe Radhe Petroleum",
    "latitude": 18.731422,
    "longitude": 73.946443,
    "city": "Shelgaon",
    "state": "Maharashtra",
    "source": "mngl"
  },
  {
    "name": "Adarsh Automobiles",
    "latitude": 18.562199,
    "longitude": 73.924698,
    "city": "Wadgaon Sheri",
    "state": "Maharashtra",
    "source": "mngl"
  }
]
