[
  {
    "name": "Indraprastha Gas Limited",
    "latitude": 28.584878,
    "longitude": 77.260221,
    "city": "",
    "state": "Delhi",
    "source": "osm_allstations"
  },
  {
    "name": "Indraprastha Gas Limited",
    "latitude": 28.618616,
    "longitude": 77.249307,
    "city": "",
    "state": "Delhi",
    "source": "osm_allstations"
  },
  {
    "name": "Cng Fuel Station",
    "latitude": 28.595924,
    "longitude": 77.029008,
    "city": "",
    "state": "Delhi",
    "source": "osm_allstations"
  },
  {
    "name": "Igl",
    "latitude": 28.572138,
    "longitude": 77.137474,
    "city": "",
    "state": "Delhi",
    "source": "osm_allstations"
  },
  {
    "name": "Igl",
    "latitude": 28.569962,
    "longitude": 77.196442,
    "city": "",
    "state": "Delhi",
    "source": "osm_allstations"
  },
  {
    "name": "Cng Fuel Station",
    "latitude": 28.59064,
    "longitude": 77.03691,
    "city": "",
    "state": "Delhi",
    "source": "osm_allstations"
  },
  {
    "name": "Igl",
    "latitude": 28.672379,
    "longitude": 77.152943,
    "city": "",
    "state": "Delhi",
    "source": "osm_allstations"
  },
  {
    "name": "Igl",
    "latitude": 28.662831,
    "longitude": 77.129539,
    "city": "",
    "state": "Delhi",
    "source": "osm_allstations"
  },
  {
    "name": "Igl",
    "latitude": 28.553235,
    "longitude": 77.180472,
    "city": "",
    "state": "Delhi",
    "source": "osm_allstations"
  },
  {
    "name": "Indraprastha Gas Station",
    "latitude": 28.567528,
    "longitude": 77.175636,
    "city": "New Delhi",
    "state": "Delhi",
    "source": "osm_allstations"
  },
  {
    "name": "Igl",
    "latitude": 28.529386,
    "longitude": 77.272819,
    "city": "",
    "state": "Delhi",
    "source": "osm_allstations"
  },
  {
    "name": "Igl",
    "latitude": 28.547714,
    "longitude": 77.255391,
    "city": "",
    "state": "Delhi",
    "source": "osm_allstations"
  },
  {
    "name": "Igl",
    "latitude": 28.629276,
    "longitude": 77.321696,
    "city": "",
    "state": "Delhi",
    "source": "osm_allstations"
  },
  {
    "name": "Igl",
    "latitude": 28.596008,
    "longitude": 77.372681,
    "city": "",
    "state": "Haryana",
    "source": "osm_allstations"
  },
  {
    "name": "Chandere Cng Station",
    "latitude": 18.552645,
    "longitude": 73.75749,
    "city": "Pune",
    "state": "Maharashtra",
    "source": "osm_allstations"
  },
  {
    "name": "Gaikwad Cng Station",
    "latitude": 18.532322,
    "longitude": 73.931865,
    "city": "",
    "state": "Maharashtra",
    "source": "osm_allstations"
  },
  {
    "name": "Igl",
    "latitude": 28.641776,
    "longitude": 77.225972,
    "city": "",
    "state": "Delhi",
    "source": "osm_allstations"
  },
  {
    "name": "Igl",
    "latitude": 29.400173,
    "longitude": 77.700106,
    "city": "",
    "state": "Uttarakhand",
    "source": "osm_allstations"
  },
  {
    "name": "Igl",
    "latitude": 28.613825,
    "longitude": 77.610141,
    "city": "",
    "state": "Uttar Pradesh",
    "source": "osm_allstations"
  },
  {
    "name": "Igl",
    "latitude": 28.69056,
    "longitude": 77.485078,
    "city": "",
    "state": "Haryana",
    "source": "osm_allstations"
  },
  {
    "name": "Igl",
    "latitude": 28.537878,
    "longitude": 77.289798,
    "city": "",
    "state": "Delhi",
    "source": "osm_allstations"
  },
  {
    "name": "Igl",
    "latitude": 28.629789,
    "longitude": 77.312399,
    "city": "",
    "state": "Delhi",
    "source": "osm_allstations"
  },
  {
    "name": "Igl",
    "latitude": 28.774554,
    "longitude": 77.065389,
    "city": "",
    "state": "Delhi",
    "source": "osm_allstations"
  },
  {
    "name": "Igl",
    "latitude": 28.837251,
    "longitude": 77.12884,
    "city": "",
    "state": "Delhi",
    "source": "osm_allstations"
  },
  {
    "name": "Igl",
    "latitude": 28.846348,
    "longitude": 77.126132,
    "city": "",
    "state": "Delhi",
    "source": "osm_allstations"
  },
  {
    "name": "Chikhali Cng Pump",
    "latitude": 18.664245,
    "longitude": 73.826683,
    "city": "",
    "state": "Maharashtra",
    "source": "osm_allstations"
  },
  {
    "name": "Mngl Cng Pump",
    "latitude": 18.534183,
    "longitude": 73.847651,
    "city": "",
    "state": "Maharashtra",
    "source": "osm_allstations"
  },
  {
    "name": "Bpcl;Mgl",
    "latitude": 19.118038,
    "longitude": 73.006688,
    "city": "",
    "state": "Maharashtra",
    "source": "osm_allstations"
  },
  {
    "name": "Igl",
    "latitude": 28.580591,
    "longitude": 77.179592,
    "city": "",
    "state": "Delhi",
    "source": "osm_allstations"
  },
  {
    "name": "Indraprastha Cng",
    "latitude": 28.655592,
    "longitude": 77.349456,
    "city": "Ghaziabad",
    "state": "Delhi",
    "source": "osm_allstations"
  },
  {
    "name": "Mngl Cng",
    "latitude": 18.585025,
    "longitude": 73.833023,
    "city": "",
    "state": "Maharashtra",
    "source": "osm_allstations"
  },
  {
    "name": "Mngl",
    "latitude": 18.663307,
    "longitude": 73.789476,
    "city": "",
    "state": "Maharashtra",
    "source": "osm_allstations"
  },
  {
    "name": "Igl",
    "latitude": 28.745614,
    "longitude": 77.151301,
    "city": "",
    "state": "Delhi",
    "source": "osm_allstations"
  },
  {
    "name": "Indraprastha Gas Limited",
    "latitude": 28.747312,
    "longitude": 77.15074,
    "city": "",
    "state": "Delhi",
    "source": "osm_allstations"
  },
  {
    "name": "Lmd Cng",
    "latitude": 18.511266,
    "longitude": 73.77095,
    "city": "",
    "state": "Maharashtra",
    "source": "osm_allstations"
  },
  {
    "name": "Igl",
    "latitude": 28.53093,
    "longitude": 77.232248,
    "city": "",
    "state": "Delhi",
    "source": "osm_allstations"
  },
  {
    "name": "Igl Cng Pump",
    "latitude": 28.597112,
    "longitude": 77.058786,
    "city": "Sector 5 Dwarka, New Delhi",
    "state": "Delhi",
    "source": "osm_allstations"
  },
  {
    "name": "Pimple Nilakh Cng Pump",
    "latitude": 18.566694,
    "longitude": 73.792555,
    "city": "Pune",
    "state": "Maharashtra",
    "source": "osm_allstations"
  },
  {
    "name": "Gail Gas",
    "latitude": 12.947388,
    "longitude": 77.5797,
    "city": "",
    "state": "Tamil Nadu",
    "source": "osm_allstations"
  },
  {
    "name": "Indian Oil Adani Gas",
    "latitude": 23.454226,
    "longitude": 87.471064,
    "city": "",
    "state": "Jharkhand",
    "source": "osm_allstations"
  },
  {
    "name": "Igl",
    "latitude": 28.406072,
    "longitude": 77.043148,
    "city": "",
    "state": "Delhi",
    "source": "osm_allstations"
  },
  {
    "name": "Sabarmati Gas",
    "latitude": 23.592692,
    "longitude": 72.330038,
    "city": "",
    "state": "Gujarat",
    "source": "osm_allstations"
  },
  {
    "name": "Igl",
    "latitude": 28.310444,
    "longitude": 77.066279,
    "city": "",
    "state": "Haryana",
    "source": "osm_allstations"
  },
  {
    "name": "Igl",
    "latitude": 28.666346,
    "longitude": 77.307588,
    "city": "",
    "state": "Delhi",
    "source": "osm_allstations"
  }
]
