[
  {
    "name": "Indian Oil",
    "latitude": 28.504343,
    "longitude": 77.171999,
    "city": "",
    "state": "Delhi",
    "source": "osm_allstations"
  },
  {
    "name": "Panchshila Service Station",
    "latitude": 28.561444,
    "longitude": 77.222783,
    "city": "",
    "state": "Delhi",
    "source": "osm_allstations"
  },
  {
    "name": "Indraprastha Gas Limited",
    "latitude": 28.681886,
    "longitude": 77.229799,
    "city": "",
    "state": "Delhi",
    "source": "osm_allstations"
  },
  {
    "name": "Gail",
    "latitude": 29.0904,
    "longitude": 77.055726,
    "city": "",
    "state": "Haryana",
    "source": "osm_allstations"
  },
  {
    "name": "Indian Oil",
    "latitude": 28.585527,
    "longitude": 77.309298,
    "city": "",
    "state": "Delhi",
    "source": "osm_allstations"
  },
  {
    "name": "Kedari Petrol Pump",
    "latitude": 18.486548,
    "longitude": 73.898661,
    "city": "Pune",
    "state": "Maharashtra",
    "source": "osm_allstations"
  },
  {
    "name": "Cng Fuel Station",
    "latitude": 28.595924,
    "longitude": 77.029008,
    "city": "",
    "state": "Delhi",
    "source": "osm_allstations"
  },
  {
    "name": "Bharat Petroleum",
    "latitude": 17.43979,
    "longitude": 78.508904,
    "city": "",
    "state": "Telangana",
    "source": "osm_allstations"
  },
  {
    "name": "CNG Station",
    "latitude": 19.213694,
    "longitude": 72.837267,
    "city": "",
    "state": "Maharashtra",
    "source": "osm_allstations"
  },
  {
    "name": "Classic Auto Gas",
    "latitude": 12.930966,
    "longitude": 77.600462,
    "city": "",
    "state": "Tamil Nadu",
    "source": "osm_allstations"
  },
  {
    "name": "Maganhalli Basappa Petrol Station",
    "latitude": 14.441589,
    "longitude": 75.922763,
    "city": "",
    "state": "Karnataka",
    "source": "osm_allstations"
  },
  {
    "name": "Bpcl Fuel Pump",
    "latitude": 19.214938,
    "longitude": 72.977444,
    "city": "",
    "state": "Maharashtra",
    "source": "osm_allstations"
  },
  {
    "name": "سی این جی",
    "latitude": 30.172448,
    "longitude": 71.483531,
    "city": "ملتان",
    "state": "Rajasthan",
    "source": "osm_allstations"
  },
  {
    "name": "سی این جی",
    "latitude": 30.199957,
    "longitude": 71.470785,
    "city": "ملتان",
    "state": "Rajasthan",
    "source": "osm_allstations"
  },
  {
    "name": "Petrol Pump",
    "latitude": 30.89107,
    "longitude": 75.80206,
    "city": "",
    "state": "Punjab",
    "source": "osm_allstations"
  },
  {
    "name": "Bharat Petroleum",
    "latitude": 28.563247,
    "longitude": 77.264743,
    "city": "",
    "state": "Delhi",
    "source": "osm_allstations"
  },
  {
    "name": "National Highway Trucking Centre",
    "latitude": 19.067743,
    "longitude": 72.900328,
    "city": "",
    "state": "Maharashtra",
    "source": "osm_allstations"
  },
  {
    "name": "Jabed Filling Station",
    "latitude": 24.902222,
    "longitude": 89.95002,
    "city": "",
    "state": "Assam",
    "source": "osm_allstations"
  },
  {
    "name": "Cng Petrol Pump",
    "latitude": 18.59217,
    "longitude": 73.803749,
    "city": "PUNE",
    "state": "Maharashtra",
    "source": "osm_allstations"
  },
  {
    "name": "سی این جی",
    "latitude": 32.586767,
    "longitude": 74.063107,
    "city": "gujrat",
    "state": "Jammu and Kashmir",
    "source": "osm_allstations"
  },
  {
    "name": "سی این جی",
    "latitude": 32.635787,
    "longitude": 74.189363,
    "city": "",
    "state": "Jammu and Kashmir",
    "source": "osm_allstations"
  },
  {
    "name": "سی این جی",
    "latitude": 32.406521,
    "longitude": 74.122953,
    "city": "",
    "state": "Punjab",
    "source": "osm_allstations"
  },
  {
    "name": "سی این جی",
    "latitude": 32.813055,
    "longitude": 73.862893,
    "city": "",
    "state": "Jammu and Kashmir",
    "source": "osm_allstations"
  },
  {
    "name": "سی این جی",
    "latitude": 32.637213,
    "longitude": 74.194175,
    "city": "",
    "state": "Jammu and Kashmir",
    "source": "osm_allstations"
  },
  {
    "name": "Indraprastha Gas Limited",
    "latitude": 28.521758,
    "longitude": 77.166746,
    "city": "",
    "state": "Delhi",
    "source": "osm_allstations"
  },
  {
    "name": "سی این جی",
    "latitude": 32.588975,
    "longitude": 74.054488,
    "city": "gujrat",
    "state": "Jammu and Kashmir",
    "source": "osm_allstations"
  },
  {
    "name": "سی این جی",
    "latitude": 32.585185,
    "longitude": 74.067975,
    "city": "",
    "state": "Jammu and Kashmir",
    "source": "osm_allstations"
  },
  {
    "name": "Badarpur Service Station",
    "latitude": 28.619637,
    "longitude": 77.341117,
    "city": "",
    "state": "Delhi",
    "source": "osm_allstations"
  },
  {
    "name": "سی این جی",
    "latitude": 32.296756,
    "longitude": 74.148931,
    "city": "",
    "state": "Punjab",
    "source": "osm_allstations"
  },
  {
    "name": "سی این جی",
    "latitude": 32.408232,
    "longitude": 74.118076,
    "city": "",
    "state": "Punjab",
    "source": "osm_allstations"
  },
  {
    "name": "Alquddus Cng",
    "latitude": 32.327623,
    "longitude": 74.141463,
    "city": "",
    "state": "Punjab",
    "source": "osm_allstations"
  },
  {
    "name": "سی این جی",
    "latitude": 31.466533,
    "longitude": 74.230309,
    "city": "",
    "state": "Punjab",
    "source": "osm_allstations"
  },
  {
    "name": "سی این جی",
    "latitude": 31.470464,
    "longitude": 74.236751,
    "city": "",
    "state": "Punjab",
    "source": "osm_allstations"
  },
  {
    "name": "Bp",
    "latitude": 22.41874,
    "longitude": 87.325087,
    "city": "",
    "state": "Jharkhand",
    "source": "osm_allstations"
  },
  {
    "name": "Bharat Petroleum",
    "latitude": 18.482702,
    "longitude": 73.826623,
    "city": "",
    "state": "Maharashtra",
    "source": "osm_allstations"
  },
  {
    "name": "سی این جی",
    "latitude": 32.324784,
    "longitude": 74.341395,
    "city": "",
    "state": "Punjab",
    "source": "osm_allstations"
  },
  {
    "name": "E. Nasservanji Petrol Pump",
    "latitude": 20.417342,
    "longitude": 72.838998,
    "city": "",
    "state": "Daman and Diu",
    "source": "osm_allstations"
  },
  {
    "name": "Igl",
    "latitude": 28.572138,
    "longitude": 77.137474,
    "city": "",
    "state": "Delhi",
    "source": "osm_allstations"
  },
  {
    "name": "Police Petrol Pump",
    "latitude": 22.732356,
    "longitude": 75.846771,
    "city": "Indore",
    "state": "Madhya Pradesh",
    "source": "osm_allstations"
  },
  {
    "name": "Igl",
    "latitude": 28.569962,
    "longitude": 77.196442,
    "city": "",
    "state": "Delhi",
    "source": "osm_allstations"
  },
  {
    "name": "CNG Station",
    "latitude": 23.057951,
    "longitude": 72.643162,
    "city": "",
    "state": "Gujarat",
    "source": "osm_allstations"
  },
  {
    "name": "Assort Cng Refueling Station",
    "latitude": 24.019374,
    "longitude": 89.251914,
    "city": "Salgaria",
    "state": "West Bengal",
    "source": "osm_allstations"
  },
  {
    "name": "Cng Filling Station",
    "latitude": 30.076407,
    "longitude": 71.185168,
    "city": "",
    "state": "Rajasthan",
    "source": "osm_allstations"
  },
  {
    "name": "Jet Fuel Supplier Reliance Industries Limited",
    "latitude": 21.186824,
    "longitude": 81.737322,
    "city": "raipur",
    "state": "Chhattisgarh",
    "source": "osm_allstations"
  },
  {
    "name": "Indian Oil Petrol Pump",
    "latitude": 22.75152,
    "longitude": 75.890762,
    "city": "Indore",
    "state": "Madhya Pradesh",
    "source": "osm_allstations"
  },
  {
    "name": "Indraprastha Gas Limited",
    "latitude": 28.538545,
    "longitude": 77.13264,
    "city": "",
    "state": "Delhi",
    "source": "osm_allstations"
  },
  {
    "name": "Cng Gas Station And Petrol Pump",
    "latitude": 22.715431,
    "longitude": 75.841069,
    "city": "Indore",
    "state": "Madhya Pradesh",
    "source": "osm_allstations"
  },
  {
    "name": "Mm Bharat Petroleum",
    "latitude": 23.609766,
    "longitude": 72.36706,
    "city": "",
    "state": "Gujarat",
    "source": "osm_allstations"
  },
  {
    "name": "سی این جی",
    "latitude": 29.419273,
    "longitude": 71.667772,
    "city": "Bahawalpur",
    "state": "Rajasthan",
    "source": "osm_allstations"
  },
  {
    "name": "Igl",
    "latitude": 28.662831,
    "longitude": 77.129539,
    "city": "",
    "state": "Delhi",
    "source": "osm_allstations"
  },
  {
    "name": "Igl",
    "latitude": 28.553235,
    "longitude": 77.180472,
    "city": "",
    "state": "Delhi",
    "source": "osm_allstations"
  },
  {
    "name": "CNG Station",
    "latitude": 20.911708,
    "longitude": 70.362812,
    "city": "",
    "state": "Gujarat",
    "source": "osm_allstations"
  },
  {
    "name": "Indraprastha Gas Station",
    "latitude": 28.567528,
    "longitude": 77.175636,
    "city": "New Delhi",
    "state": "Delhi",
    "source": "osm_allstations"
  },
  {
    "name": "Hp",
    "latitude": 28.494525,
    "longitude": 77.303591,
    "city": "",
    "state": "Delhi",
    "source": "osm_allstations"
  },
  {
    "name": "Igl",
    "latitude": 28.547714,
    "longitude": 77.255391,
    "city": "",
    "state": "Delhi",
    "source": "osm_allstations"
  },
  {
    "name": "Mahanagar Gas",
    "latitude": 19.063177,
    "longitude": 73.023107,
    "city": "",
    "state": "Maharashtra",
    "source": "osm_allstations"
  },
  {
    "name": "Indraprastha Gas Limited",
    "latitude": 28.650427,
    "longitude": 77.268427,
    "city": "",
    "state": "Delhi",
    "source": "osm_allstations"
  },
  {
    "name": "CNG Station",
    "latitude": 31.563119,
    "longitude": 74.335685,
    "city": "لاہور",
    "state": "Punjab",
    "source": "osm_allstations"
  },
  {
    "name": "Igl",
    "latitude": 28.629276,
    "longitude": 77.321696,
    "city": "",
    "state": "Delhi",
    "source": "osm_allstations"
  },
  {
    "name": "Pakistan Filling Station",
    "latitude": 28.650453,
    "longitude": 70.67967,
    "city": "Khanpur",
    "state": "Rajasthan",
    "source": "osm_allstations"
  },
  {
    "name": "Bharat Petrolium",
    "latitude": 22.746128,
    "longitude": 75.893793,
    "city": "",
    "state": "Madhya Pradesh",
    "source": "osm_allstations"
  },
  {
    "name": "Indraprastha Gas Limited",
    "latitude": 28.706513,
    "longitude": 77.185282,
    "city": "",
    "state": "Delhi",
    "source": "osm_allstations"
  },
  {
    "name": "Indraprastha Gas Limited",
    "latitude": 28.6855,
    "longitude": 77.148747,
    "city": "",
    "state": "Delhi",
    "source": "osm_allstations"
  },
  {
    "name": "Indian Oil",
    "latitude": 22.72037,
    "longitude": 75.872283,
    "city": "Indore",
    "state": "Madhya Pradesh",
    "source": "osm_allstations"
  },
  {
    "name": "Bharat Petroleum",
    "latitude": 22.716903,
    "longitude": 75.873126,
    "city": "Indore",
    "state": "Madhya Pradesh",
    "source": "osm_allstations"
  },
  {
    "name": "Hp",
    "latitude": 22.717008,
    "longitude": 75.884285,
    "city": "Indore",
    "state": "Madhya Pradesh",
    "source": "osm_allstations"
  },
  {
    "name": "Indian Oil",
    "latitude": 22.705017,
    "longitude": 75.844265,
    "city": "Indore",
    "state": "Madhya Pradesh",
    "source": "osm_allstations"
  },
  {
    "name": "Hp",
    "latitude": 22.716231,
    "longitude": 75.860244,
    "city": "Indore",
    "state": "Madhya Pradesh",
    "source": "osm_allstations"
  },
  {
    "name": "Hp",
    "latitude": 22.695298,
    "longitude": 75.829621,
    "city": "Indore",
    "state": "Madhya Pradesh",
    "source": "osm_allstations"
  },
  {
    "name": "Indian Oil Petrol Pump",
    "latitude": 22.772818,
    "longitude": 75.902501,
    "city": "Indore",
    "state": "Madhya Pradesh",
    "source": "osm_allstations"
  },
  {
    "name": "Laxmi Petrol Pump",
    "latitude": 22.775362,
    "longitude": 75.902582,
    "city": "Indore",
    "state": "Madhya Pradesh",
    "source": "osm_allstations"
  },
  {
    "name": "Gati Corporation Pump",
    "latitude": 22.778029,
    "longitude": 75.903345,
    "city": "Indore",
    "state": "Madhya Pradesh",
    "source": "osm_allstations"
  },
  {
    "name": "Igl-Cng Station",
    "latitude": 28.446122,
    "longitude": 77.543288,
    "city": "Gautam Buddha Nagar",
    "state": "Haryana",
    "source": "osm_allstations"
  },
  {
    "name": "CNG Station",
    "latitude": 28.397792,
    "longitude": 76.932488,
    "city": "",
    "state": "Haryana",
    "source": "osm_allstations"
  },
  {
    "name": "Indraprastha Gas",
    "latitude": 28.618478,
    "longitude": 77.24853,
    "city": "",
    "state": "Delhi",
    "source": "osm_allstations"
  },
  {
    "name": "Indraprastha Gas",
    "latitude": 28.608699,
    "longitude": 77.252827,
    "city": "",
    "state": "Delhi",
    "source": "osm_allstations"
  },
  {
    "name": "H.S. Road Carrier Petrol Pump",
    "latitude": 22.678499,
    "longitude": 75.877801,
    "city": "Indore",
    "state": "Madhya Pradesh",
    "source": "osm_allstations"
  },
  {
    "name": "Madhur Fuel Station",
    "latitude": 22.681914,
    "longitude": 75.861174,
    "city": "Indore",
    "state": "Madhya Pradesh",
    "source": "osm_allstations"
  },
  {
    "name": "Shakti Fuel Station",
    "latitude": 22.689488,
    "longitude": 75.887981,
    "city": "Indore",
    "state": "Madhya Pradesh",
    "source": "osm_allstations"
  },
  {
    "name": "Poss Fuel Station",
    "latitude": 22.685143,
    "longitude": 75.911322,
    "city": "Indore",
    "state": "Madhya Pradesh",
    "source": "osm_allstations"
  },
  {
    "name": "Sai Filling Station",
    "latitude": 22.705656,
    "longitude": 75.825561,
    "city": "Indore",
    "state": "Madhya Pradesh",
    "source": "osm_allstations"
  },
  {
    "name": "Indian Oil",
    "latitude": 28.952208,
    "longitude": 77.094536,
    "city": "",
    "state": "Haryana",
    "source": "osm_allstations"
  },
  {
    "name": "Hp Petrol Pump",
    "latitude": 28.675266,
    "longitude": 77.291325,
    "city": "",
    "state": "Delhi",
    "source": "osm_allstations"
  },
  {
    "name": "Indraprastha Gas",
    "latitude": 28.486936,
    "longitude": 77.187828,
    "city": "",
    "state": "Delhi",
    "source": "osm_allstations"
  },
  {
    "name": "ഇനതയൻ ഓയിൽ പെടരോൾ പമപ",
    "latitude": 9.990335,
    "longitude": 76.577181,
    "city": "മുവാറ്റുപുഴ",
    "state": "Kerala",
    "source": "osm_allstations"
  },
  {
    "name": "Igl",
    "latitude": 28.596008,
    "longitude": 77.372681,
    "city": "",
    "state": "Haryana",
    "source": "osm_allstations"
  },
  {
    "name": "Indraprastha Gas Limited",
    "latitude": 28.640187,
    "longitude": 77.256493,
    "city": "",
    "state": "Delhi",
    "source": "osm_allstations"
  },
  {
    "name": "Indraprastha Gas Limited",
    "latitude": 28.721062,
    "longitude": 77.217155,
    "city": "",
    "state": "Delhi",
    "source": "osm_allstations"
  },
  {
    "name": "Essar",
    "latitude": 29.306693,
    "longitude": 76.993431,
    "city": "",
    "state": "Haryana",
    "source": "osm_allstations"
  },
  {
    "name": "Chaudhary Fuel Point",
    "latitude": 31.350737,
    "longitude": 76.387524,
    "city": "",
    "state": "Punjab",
    "source": "osm_allstations"
  },
  {
    "name": "Bharat Petroleum",
    "latitude": 31.60096,
    "longitude": 76.17792,
    "city": "",
    "state": "Punjab",
    "source": "osm_allstations"
  },
  {
    "name": "CNG Station",
    "latitude": 18.738315,
    "longitude": 73.857687,
    "city": "",
    "state": "Maharashtra",
    "source": "osm_allstations"
  },
  {
    "name": "Indian Oil",
    "latitude": 28.564706,
    "longitude": 77.177629,
    "city": "",
    "state": "Delhi",
    "source": "osm_allstations"
  },
  {
    "name": "Gandhi Petrol Pump",
    "latitude": 22.609163,
    "longitude": 73.462009,
    "city": "Kalol",
    "state": "Gujarat",
    "source": "osm_allstations"
  },
  {
    "name": "Sarpanch Petro Service",
    "latitude": 30.50516,
    "longitude": 74.858002,
    "city": "",
    "state": "Punjab",
    "source": "osm_allstations"
  },
  {
    "name": "Hcg",
    "latitude": 28.458053,
    "longitude": 77.047127,
    "city": "",
    "state": "Delhi",
    "source": "osm_allstations"
  },
  {
    "name": "Sk Cng Gas Station",
    "latitude": 19.149027,
    "longitude": 72.839974,
    "city": "",
    "state": "Maharashtra",
    "source": "osm_allstations"
  },
  {
    "name": "Hp",
    "latitude": 19.12805,
    "longitude": 72.832203,
    "city": "",
    "state": "Maharashtra",
    "source": "osm_allstations"
  },
  {
    "name": "Indraprastha Gas Limited",
    "latitude": 28.623044,
    "longitude": 77.311212,
    "city": "",
    "state": "Delhi",
    "source": "osm_allstations"
  },
  {
    "name": "इंडीयन आयल",
    "latitude": 28.14731,
    "longitude": 77.572845,
    "city": "",
    "state": "Haryana",
    "source": "osm_allstations"
  },
  {
    "name": "Bharat Petroleum",
    "latitude": 19.274638,
    "longitude": 72.887167,
    "city": "Mira Road East, Thane",
    "state": "Maharashtra",
    "source": "osm_allstations"
  },
  {
    "name": "Bharat Petroleum",
    "latitude": 19.271645,
    "longitude": 72.881271,
    "city": "Mira Road East, Thane",
    "state": "Maharashtra",
    "source": "osm_allstations"
  },
  {
    "name": "Yashwantraya Petrol Station & Cng Station",
    "latitude": 18.336388,
    "longitude": 74.374403,
    "city": "Supe",
    "state": "Karnataka",
    "source": "osm_allstations"
  },
  {
    "name": "Gupta Petroleum",
    "latitude": 23.756966,
    "longitude": 86.339138,
    "city": "",
    "state": "Jharkhand",
    "source": "osm_allstations"
  },
  {
    "name": "Indian Oil",
    "latitude": 23.623407,
    "longitude": 86.18418,
    "city": "",
    "state": "Jharkhand",
    "source": "osm_allstations"
  },
  {
    "name": "Bharat Petroleum",
    "latitude": 22.617619,
    "longitude": 70.549784,
    "city": "At Lalpur ,Sub Dist Dhrol ,Dist Jamnagar",
    "state": "Gujarat",
    "source": "osm_allstations"
  },
  {
    "name": "Indian Oil",
    "latitude": 22.620383,
    "longitude": 70.522228,
    "city": "",
    "state": "Gujarat",
    "source": "osm_allstations"
  },
  {
    "name": "Gail Cng Filling Station",
    "latitude": 20.476489,
    "longitude": 85.820261,
    "city": "",
    "state": "Odisha",
    "source": "osm_allstations"
  },
  {
    "name": "Bharat Petroleum",
    "latitude": 22.561801,
    "longitude": 70.419145,
    "city": "Dhrol",
    "state": "Gujarat",
    "source": "osm_allstations"
  },
  {
    "name": "Gulab Bharat Petroleum And Cng",
    "latitude": 22.670785,
    "longitude": 70.752164,
    "city": "Tankara",
    "state": "Gujarat",
    "source": "osm_allstations"
  },
  {
    "name": "Cng",
    "latitude": 19.252359,
    "longitude": 74.00155,
    "city": "Otur",
    "state": "Maharashtra",
    "source": "osm_allstations"
  },
  {
    "name": "Chandere Cng Station",
    "latitude": 18.552645,
    "longitude": 73.75749,
    "city": "Pune",
    "state": "Maharashtra",
    "source": "osm_allstations"
  },
  {
    "name": "Bharat Petroleum",
    "latitude": 31.389969,
    "longitude": 76.344562,
    "city": "",
    "state": "Punjab",
    "source": "osm_allstations"
  },
  {
    "name": "Haryana City Gas (Hcg) Cng Pump",
    "latitude": 28.452132,
    "longitude": 77.075083,
    "city": "Gurgaon",
    "state": "Delhi",
    "source": "osm_allstations"
  },
  {
    "name": "Adani Gas",
    "latitude": 27.944461,
    "longitude": 77.348444,
    "city": "",
    "state": "Haryana",
    "source": "osm_allstations"
  },
  {
    "name": "Hp",
    "latitude": 15.871067,
    "longitude": 73.646079,
    "city": "Vengurla",
    "state": "Maharashtra",
    "source": "osm_allstations"
  },
  {
    "name": "Indian Oil",
    "latitude": 28.385759,
    "longitude": 79.435676,
    "city": "",
    "state": "Uttar Pradesh",
    "source": "osm_allstations"
  },
  {
    "name": "Indian Oil",
    "latitude": 28.375683,
    "longitude": 79.43336,
    "city": "",
    "state": "Uttar Pradesh",
    "source": "osm_allstations"
  },
  {
    "name": "Indian Auto Gas",
    "latitude": 21.18139,
    "longitude": 79.038446,
    "city": "Nagpur",
    "state": "Madhya Pradesh",
    "source": "osm_allstations"
  },
  {
    "name": "Indian Oil",
    "latitude": 22.708857,
    "longitude": 77.912046,
    "city": "",
    "state": "Madhya Pradesh",
    "source": "osm_allstations"
  },
  {
    "name": "Gaikwad Cng Station",
    "latitude": 18.532322,
    "longitude": 73.931865,
    "city": "",
    "state": "Maharashtra",
    "source": "osm_allstations"
  },
  {
    "name": "CNG Station",
    "latitude": 28.784087,
    "longitude": 76.12276,
    "city": "",
    "state": "Haryana",
    "source": "osm_allstations"
  },
  {
    "name": "CNG Station",
    "latitude": 28.388263,
    "longitude": 79.437774,
    "city": "",
    "state": "Uttar Pradesh",
    "source": "osm_allstations"
  },
  {
    "name": "Bharat Petroleum",
    "latitude": 27.218283,
    "longitude": 78.099432,
    "city": "",
    "state": "Uttar Pradesh",
    "source": "osm_allstations"
  },
  {
    "name": "Extra Gas",
    "latitude": 17.394349,
    "longitude": 78.470062,
    "city": "",
    "state": "Telangana",
    "source": "osm_allstations"
  },
  {
    "name": "Indian Oil Petrol Pump",
    "latitude": 18.580337,
    "longitude": 73.975254,
    "city": "Wagholi",
    "state": "Maharashtra",
    "source": "osm_allstations"
  },
  {
    "name": "Gail Gas",
    "latitude": 28.940541,
    "longitude": 77.774445,
    "city": "",
    "state": "Uttarakhand",
    "source": "osm_allstations"
  },
  {
    "name": "CNG Station",
    "latitude": 24.874605,
    "longitude": 89.368603,
    "city": "",
    "state": "West Bengal",
    "source": "osm_allstations"
  },
  {
    "name": "Indian Oil",
    "latitude": 22.867179,
    "longitude": 72.457682,
    "city": "",
    "state": "Gujarat",
    "source": "osm_allstations"
  },
  {
    "name": "Go Gas",
    "latitude": 13.039379,
    "longitude": 77.596215,
    "city": "",
    "state": "Tamil Nadu",
    "source": "osm_allstations"
  },
  {
    "name": "Indianoil",
    "latitude": 24.542602,
    "longitude": 81.292618,
    "city": "Rewa",
    "state": "Uttar Pradesh",
    "source": "osm_allstations"
  },
  {
    "name": "Bps Cng Filling Station",
    "latitude": 26.951767,
    "longitude": 75.761222,
    "city": "",
    "state": "Rajasthan",
    "source": "osm_allstations"
  },
  {
    "name": "Igl",
    "latitude": 28.629789,
    "longitude": 77.312399,
    "city": "",
    "state": "Delhi",
    "source": "osm_allstations"
  },
  {
    "name": "Pioneer Petrol Pump",
    "latitude": 22.328256,
    "longitude": 73.262744,
    "city": "vadodara",
    "state": "Gujarat",
    "source": "osm_allstations"
  },
  {
    "name": "Shaheed Shyodanaram Fuel Station",
    "latitude": 27.680984,
    "longitude": 75.091213,
    "city": "",
    "state": "Haryana",
    "source": "osm_allstations"
  },
  {
    "name": "CNG Station",
    "latitude": 21.177865,
    "longitude": 79.125278,
    "city": "",
    "state": "Madhya Pradesh",
    "source": "osm_allstations"
  },
  {
    "name": "Bharat Petroleum",
    "latitude": 26.220671,
    "longitude": 81.255182,
    "city": "Raebareli",
    "state": "Uttar Pradesh",
    "source": "osm_allstations"
  },
  {
    "name": "CNG Station",
    "latitude": 18.723969,
    "longitude": 73.681735,
    "city": "Talegoan Dabhade",
    "state": "Maharashtra",
    "source": "osm_allstations"
  },
  {
    "name": "CNG Station",
    "latitude": 18.637415,
    "longitude": 73.849217,
    "city": "pune",
    "state": "Maharashtra",
    "source": "osm_allstations"
  },
  {
    "name": "Bharat Petroleum",
    "latitude": 29.876591,
    "longitude": 73.9224,
    "city": "Sri Ganganagar",
    "state": "Punjab",
    "source": "osm_allstations"
  },
  {
    "name": "Mahanagar Gas",
    "latitude": 18.985254,
    "longitude": 72.830855,
    "city": "",
    "state": "Maharashtra",
    "source": "osm_allstations"
  },
  {
    "name": "Hindustan Petroleum",
    "latitude": 12.94348,
    "longitude": 80.138717,
    "city": "",
    "state": "Tamil Nadu",
    "source": "osm_allstations"
  },
  {
    "name": "Hp Petrol Station",
    "latitude": 18.960853,
    "longitude": 72.832141,
    "city": "",
    "state": "Maharashtra",
    "source": "osm_allstations"
  },
  {
    "name": "Lotus Petrol Pump",
    "latitude": 19.142679,
    "longitude": 72.831771,
    "city": "",
    "state": "Maharashtra",
    "source": "osm_allstations"
  },
  {
    "name": "Bpcl",
    "latitude": 18.59839,
    "longitude": 73.82819,
    "city": "",
    "state": "Maharashtra",
    "source": "osm_allstations"
  },
  {
    "name": "Bharat Petroleum;Mahanagar Gas",
    "latitude": 19.08307,
    "longitude": 73.001215,
    "city": "",
    "state": "Maharashtra",
    "source": "osm_allstations"
  },
  {
    "name": "Mahanagar Gas",
    "latitude": 19.011981,
    "longitude": 73.035811,
    "city": "",
    "state": "Maharashtra",
    "source": "osm_allstations"
  },
  {
    "name": "Chikhali Cng Pump",
    "latitude": 18.664245,
    "longitude": 73.826683,
    "city": "",
    "state": "Maharashtra",
    "source": "osm_allstations"
  },
  {
    "name": "Mngl Cng Pump",
    "latitude": 18.534183,
    "longitude": 73.847651,
    "city": "",
    "state": "Maharashtra",
    "source": "osm_allstations"
  },
  {
    "name": "سی این جی",
    "latitude": 32.980542,
    "longitude": 73.680701,
    "city": "",
    "state": "Jammu and Kashmir",
    "source": "osm_allstations"
  },
  {
    "name": "سی این جی",
    "latitude": 32.596347,
    "longitude": 74.042086,
    "city": "",
    "state": "Jammu and Kashmir",
    "source": "osm_allstations"
  },
  {
    "name": "سی این جی",
    "latitude": 32.578158,
    "longitude": 74.063413,
    "city": "",
    "state": "Jammu and Kashmir",
    "source": "osm_allstations"
  },
  {
    "name": "سی این جی",
    "latitude": 32.576422,
    "longitude": 74.06412,
    "city": "",
    "state": "Jammu and Kashmir",
    "source": "osm_allstations"
  },
  {
    "name": "سی این جی",
    "latitude": 32.179726,
    "longitude": 74.225877,
    "city": "",
    "state": "Punjab",
    "source": "osm_allstations"
  },
  {
    "name": "Bharat Petroleum",
    "latitude": 18.639387,
    "longitude": 73.738335,
    "city": "",
    "state": "Maharashtra",
    "source": "osm_allstations"
  },
  {
    "name": "Hp",
    "latitude": 18.601196,
    "longitude": 73.754348,
    "city": "",
    "state": "Maharashtra",
    "source": "osm_allstations"
  },
  {
    "name": "Hp",
    "latitude": 18.628264,
    "longitude": 73.742393,
    "city": "",
    "state": "Maharashtra",
    "source": "osm_allstations"
  },
  {
    "name": "Bpcl;Mgl",
    "latitude": 19.118038,
    "longitude": 73.006688,
    "city": "",
    "state": "Maharashtra",
    "source": "osm_allstations"
  },
  {
    "name": "Indraprasath",
    "latitude": 28.730446,
    "longitude": 77.117738,
    "city": "Rohini, Delhi",
    "state": "Delhi",
    "source": "osm_allstations"
  },
  {
    "name": "Hp",
    "latitude": 28.602123,
    "longitude": 77.230004,
    "city": "",
    "state": "Delhi",
    "source": "osm_allstations"
  },
  {
    "name": "Indian Oil",
    "latitude": 28.570773,
    "longitude": 77.163403,
    "city": "",
    "state": "Delhi",
    "source": "osm_allstations"
  },
  {
    "name": "M/S. Shivan Auto Centre",
    "latitude": 28.621453,
    "longitude": 77.301602,
    "city": "",
    "state": "Delhi",
    "source": "osm_allstations"
  },
  {
    "name": "Indian Oil",
    "latitude": 28.56764,
    "longitude": 77.253928,
    "city": "",
    "state": "Delhi",
    "source": "osm_allstations"
  },
  {
    "name": "Indian Oil",
    "latitude": 19.102374,
    "longitude": 72.919607,
    "city": "",
    "state": "Maharashtra",
    "source": "osm_allstations"
  },
  {
    "name": "Rathi Cng Gas Station",
    "latitude": 18.453989,
    "longitude": 73.853487,
    "city": "Pune",
    "state": "Maharashtra",
    "source": "osm_allstations"
  },
  {
    "name": "Dharmavat Petrol Pump",
    "latitude": 18.448715,
    "longitude": 73.904331,
    "city": "",
    "state": "Maharashtra",
    "source": "osm_allstations"
  },
  {
    "name": "ماڈل سی این جی",
    "latitude": 32.504508,
    "longitude": 74.523298,
    "city": "",
    "state": "Punjab",
    "source": "osm_allstations"
  },
  {
    "name": "Mahanagar Cng Station",
    "latitude": 19.034594,
    "longitude": 73.028686,
    "city": "",
    "state": "Maharashtra",
    "source": "osm_allstations"
  },
  {
    "name": "Shakina Cng",
    "latitude": 24.302038,
    "longitude": 91.69322,
    "city": "",
    "state": "Tripura",
    "source": "osm_allstations"
  },
  {
    "name": "Indraprastha Cng",
    "latitude": 28.655592,
    "longitude": 77.349456,
    "city": "Ghaziabad",
    "state": "Delhi",
    "source": "osm_allstations"
  },
  {
    "name": "Mngl Cng",
    "latitude": 18.585025,
    "longitude": 73.833023,
    "city": "",
    "state": "Maharashtra",
    "source": "osm_allstations"
  },
  {
    "name": "Mngl",
    "latitude": 18.663307,
    "longitude": 73.789476,
    "city": "",
    "state": "Maharashtra",
    "source": "osm_allstations"
  },
  {
    "name": "Indian Oil Petrol Pump",
    "latitude": 9.669442,
    "longitude": 76.339168,
    "city": "",
    "state": "Kerala",
    "source": "osm_allstations"
  },
  {
    "name": "Igl",
    "latitude": 28.745614,
    "longitude": 77.151301,
    "city": "",
    "state": "Delhi",
    "source": "osm_allstations"
  },
  {
    "name": "Petronas",
    "latitude": 12.923889,
    "longitude": 77.640766,
    "city": "",
    "state": "Tamil Nadu",
    "source": "osm_allstations"
  },
  {
    "name": "Indian Oil",
    "latitude": 12.94525,
    "longitude": 77.618989,
    "city": "",
    "state": "Tamil Nadu",
    "source": "osm_allstations"
  },
  {
    "name": "Jio Bp",
    "latitude": 13.165368,
    "longitude": 77.62915,
    "city": "",
    "state": "Tamil Nadu",
    "source": "osm_allstations"
  },
  {
    "name": "Lmd Cng",
    "latitude": 18.511266,
    "longitude": 73.77095,
    "city": "",
    "state": "Maharashtra",
    "source": "osm_allstations"
  },
  {
    "name": "India Gas Limited Cng Station",
    "latitude": 28.696549,
    "longitude": 77.291455,
    "city": "shahdara",
    "state": "Delhi",
    "source": "osm_allstations"
  },
  {
    "name": "Indian Oil",
    "latitude": 10.808269,
    "longitude": 78.681486,
    "city": "",
    "state": "Tamil Nadu",
    "source": "osm_allstations"
  },
  {
    "name": "Igl",
    "latitude": 28.53093,
    "longitude": 77.232248,
    "city": "",
    "state": "Delhi",
    "source": "osm_allstations"
  },
  {
    "name": "Bharat Petroleum",
    "latitude": 9.990348,
    "longitude": 76.271444,
    "city": "",
    "state": "Kerala",
    "source": "osm_allstations"
  },
  {
    "name": "Indian Oil",
    "latitude": 9.927171,
    "longitude": 78.099966,
    "city": "",
    "state": "Tamil Nadu",
    "source": "osm_allstations"
  },
  {
    "name": "Indian Oil",
    "latitude": 9.985533,
    "longitude": 76.248041,
    "city": "",
    "state": "Kerala",
    "source": "osm_allstations"
  },
  {
    "name": "Al-Macca Cng & Petroleum Center",
    "latitude": 28.422699,
    "longitude": 70.293991,
    "city": "Rahim Yar Khan",
    "state": "Rajasthan",
    "source": "osm_allstations"
  },
  {
    "name": "Hindustan Petroleum",
    "latitude": 28.855781,
    "longitude": 77.124404,
    "city": "",
    "state": "Delhi",
    "source": "osm_allstations"
  },
  {
    "name": "Hindustan Petroleum",
    "latitude": 28.854644,
    "longitude": 77.124571,
    "city": "",
    "state": "Delhi",
    "source": "osm_allstations"
  },
  {
    "name": "Hindustan Petroleum",
    "latitude": 28.853685,
    "longitude": 77.124776,
    "city": "",
    "state": "Delhi",
    "source": "osm_allstations"
  },
  {
    "name": "Indian Oil",
    "latitude": 10.069899,
    "longitude": 76.33074,
    "city": "",
    "state": "Kerala",
    "source": "osm_allstations"
  },
  {
    "name": "Hindusthan Petroleum",
    "latitude": 9.763205,
    "longitude": 77.109331,
    "city": "vellayamkudi",
    "state": "Kerala",
    "source": "osm_allstations"
  },
  {
    "name": "Gbu- Charging Station",
    "latitude": 28.424586,
    "longitude": 77.520999,
    "city": "GREATER NOIDA",
    "state": "Haryana",
    "source": "osm_allstations"
  },
  {
    "name": "Bisrakh Fcs",
    "latitude": 28.574578,
    "longitude": 77.444915,
    "city": "GREATER NOIDA",
    "state": "Haryana",
    "source": "osm_allstations"
  },
  {
    "name": "Botanical Charging Station",
    "latitude": 28.565202,
    "longitude": 77.334384,
    "city": "noida",
    "state": "Delhi",
    "source": "osm_allstations"
  },
  {
    "name": "Adani Cng Station",
    "latitude": 22.999159,
    "longitude": 72.603628,
    "city": "",
    "state": "Gujarat",
    "source": "osm_allstations"
  },
  {
    "name": "Kargill Shaheed Riyasat Filling Station",
    "latitude": 29.264592,
    "longitude": 77.004395,
    "city": "",
    "state": "Haryana",
    "source": "osm_allstations"
  },
  {
    "name": "Indian Oil",
    "latitude": 26.872674,
    "longitude": 75.820837,
    "city": "",
    "state": "Madhya Pradesh",
    "source": "osm_allstations"
  },
  {
    "name": "Shaheed Ganpat Singh Dhaka Filling Station",
    "latitude": 27.579523,
    "longitude": 75.199165,
    "city": "Sikar",
    "state": "Rajasthan",
    "source": "osm_allstations"
  },
  {
    "name": "Hpcl Petrol Pump",
    "latitude": 21.169096,
    "longitude": 72.794779,
    "city": "Surat",
    "state": "Gujarat",
    "source": "osm_allstations"
  },
  {
    "name": "CNG Station",
    "latitude": 19.044543,
    "longitude": 72.916476,
    "city": "",
    "state": "Maharashtra",
    "source": "osm_allstations"
  },
  {
    "name": "Indian Oil",
    "latitude": 28.632859,
    "longitude": 77.351153,
    "city": "",
    "state": "Haryana",
    "source": "osm_allstations"
  },
  {
    "name": "Hp",
    "latitude": 28.585781,
    "longitude": 77.240414,
    "city": "",
    "state": "Delhi",
    "source": "osm_allstations"
  },
  {
    "name": "Indian Oil",
    "latitude": 28.624883,
    "longitude": 77.305303,
    "city": "",
    "state": "Delhi",
    "source": "osm_allstations"
  },
  {
    "name": "Indraprastha Gas Limited",
    "latitude": 28.625809,
    "longitude": 77.314583,
    "city": "",
    "state": "Delhi",
    "source": "osm_allstations"
  },
  {
    "name": "Indraprastha Gas Limited",
    "latitude": 28.67306,
    "longitude": 77.283197,
    "city": "",
    "state": "Delhi",
    "source": "osm_allstations"
  },
  {
    "name": "Hindustan Petroluem",
    "latitude": 28.723486,
    "longitude": 77.165038,
    "city": "",
    "state": "Delhi",
    "source": "osm_allstations"
  },
  {
    "name": "Pimple Nilakh Cng Pump",
    "latitude": 18.566694,
    "longitude": 73.792555,
    "city": "Pune",
    "state": "Maharashtra",
    "source": "osm_allstations"
  },
  {
    "name": "Gail",
    "latitude": 13.154663,
    "longitude": 77.685089,
    "city": "",
    "state": "Tamil Nadu",
    "source": "osm_allstations"
  },
  {
    "name": "Mahanager Gas",
    "latitude": 19.289747,
    "longitude": 72.864608,
    "city": "",
    "state": "Maharashtra",
    "source": "osm_allstations"
  },
  {
    "name": "Gail",
    "latitude": 12.996147,
    "longitude": 77.519409,
    "city": "",
    "state": "Tamil Nadu",
    "source": "osm_allstations"
  },
  {
    "name": "Indian Oil",
    "latitude": 18.879215,
    "longitude": 77.176431,
    "city": "kandhar",
    "state": "Telangana",
    "source": "osm_allstations"
  },
  {
    "name": "Maharashtra Natural Gas Limited",
    "latitude": 18.677292,
    "longitude": 73.859805,
    "city": "",
    "state": "Maharashtra",
    "source": "osm_allstations"
  },
  {
    "name": "Indian Oil",
    "latitude": 28.98893,
    "longitude": 79.399639,
    "city": "",
    "state": "Uttarakhand",
    "source": "osm_allstations"
  },
  {
    "name": "Indraprastha Gas Limited Cng Station",
    "latitude": 28.685884,
    "longitude": 77.318648,
    "city": "",
    "state": "Delhi",
    "source": "osm_allstations"
  },
  {
    "name": "Indraprastha Gas Limited",
    "latitude": 28.842084,
    "longitude": 77.101721,
    "city": "",
    "state": "Delhi",
    "source": "osm_allstations"
  },
  {
    "name": "Hp",
    "latitude": 18.436462,
    "longitude": 73.142262,
    "city": "",
    "state": "Maharashtra",
    "source": "osm_allstations"
  },
  {
    "name": "Hcg",
    "latitude": 28.449699,
    "longitude": 77.091059,
    "city": "",
    "state": "Delhi",
    "source": "osm_allstations"
  },
  {
    "name": "Gail Gas",
    "latitude": 12.947388,
    "longitude": 77.5797,
    "city": "",
    "state": "Tamil Nadu",
    "source": "osm_allstations"
  },
  {
    "name": "Gail",
    "latitude": 13.057551,
    "longitude": 77.546644,
    "city": "",
    "state": "Tamil Nadu",
    "source": "osm_allstations"
  },
  {
    "name": "Indian Oil Petrol Pump",
    "latitude": 24.899587,
    "longitude": 74.347347,
    "city": "",
    "state": "Madhya Pradesh",
    "source": "osm_allstations"
  },
  {
    "name": "Sudarshan Filling Station",
    "latitude": 22.709314,
    "longitude": 77.896989,
    "city": "",
    "state": "Madhya Pradesh",
    "source": "osm_allstations"
  },
  {
    "name": "Indian Oil Petrol Pump",
    "latitude": 18.624352,
    "longitude": 74.031235,
    "city": "Loni kand",
    "state": "Maharashtra",
    "source": "osm_allstations"
  },
  {
    "name": "Indian Oil Adani Gas",
    "latitude": 23.454226,
    "longitude": 87.471064,
    "city": "",
    "state": "Jharkhand",
    "source": "osm_allstations"
  },
  {
    "name": "Gail",
    "latitude": 25.324442,
    "longitude": 83.034502,
    "city": "",
    "state": "Uttar Pradesh",
    "source": "osm_allstations"
  },
  {
    "name": "Indraprastha Gas",
    "latitude": 28.425844,
    "longitude": 77.025872,
    "city": "",
    "state": "Delhi",
    "source": "osm_allstations"
  },
  {
    "name": "Hcg",
    "latitude": 28.427369,
    "longitude": 77.023342,
    "city": "",
    "state": "Delhi",
    "source": "osm_allstations"
  },
  {
    "name": "Hcg",
    "latitude": 28.428086,
    "longitude": 77.021113,
    "city": "",
    "state": "Delhi",
    "source": "osm_allstations"
  },
  {
    "name": "Hcg",
    "latitude": 28.439833,
    "longitude": 77.00361,
    "city": "",
    "state": "Delhi",
    "source": "osm_allstations"
  },
  {
    "name": "Hcg",
    "latitude": 28.449793,
    "longitude": 76.99687,
    "city": "",
    "state": "Delhi",
    "source": "osm_allstations"
  },
  {
    "name": "Totalgaz",
    "latitude": 12.921376,
    "longitude": 77.600434,
    "city": "",
    "state": "Tamil Nadu",
    "source": "osm_allstations"
  },
  {
    "name": "Igl",
    "latitude": 28.406072,
    "longitude": 77.043148,
    "city": "",
    "state": "Delhi",
    "source": "osm_allstations"
  },
  {
    "name": "Gail Gas Cng Station",
    "latitude": 13.153425,
    "longitude": 77.728555,
    "city": "",
    "state": "Tamil Nadu",
    "source": "osm_allstations"
  },
  {
    "name": "Indian Oil Petrol Pump",
    "latitude": 29.329022,
    "longitude": 75.843046,
    "city": "",
    "state": "Haryana",
    "source": "osm_allstations"
  },
  {
    "name": "Gail Gas",
    "latitude": 13.040554,
    "longitude": 77.61859,
    "city": "",
    "state": "Tamil Nadu",
    "source": "osm_allstations"
  },
  {
    "name": "Bharat Petroleum",
    "latitude": 13.136912,
    "longitude": 77.56853,
    "city": "",
    "state": "Tamil Nadu",
    "source": "osm_allstations"
  },
  {
    "name": "Indraprastha Gas Limited",
    "latitude": 28.537558,
    "longitude": 77.153235,
    "city": "",
    "state": "Delhi",
    "source": "osm_allstations"
  },
  {
    "name": "Indraprastha Gas Limited",
    "latitude": 28.732903,
    "longitude": 77.558978,
    "city": "",
    "state": "Haryana",
    "source": "osm_allstations"
  },
  {
    "name": "Gail Gas",
    "latitude": 12.946892,
    "longitude": 77.746957,
    "city": "",
    "state": "Tamil Nadu",
    "source": "osm_allstations"
  },
  {
    "name": "Gail",
    "latitude": 12.889281,
    "longitude": 77.437879,
    "city": "",
    "state": "Tamil Nadu",
    "source": "osm_allstations"
  },
  {
    "name": "Gail",
    "latitude": 12.871422,
    "longitude": 77.58346,
    "city": "",
    "state": "Tamil Nadu",
    "source": "osm_allstations"
  },
  {
    "name": "Sabarmati Gas",
    "latitude": 23.592692,
    "longitude": 72.330038,
    "city": "",
    "state": "Gujarat",
    "source": "osm_allstations"
  },
  {
    "name": "Indian Oil Pump (Cng Available)",
    "latitude": 18.457775,
    "longitude": 73.829162,
    "city": "",
    "state": "Maharashtra",
    "source": "osm_allstations"
  },
  {
    "name": "Vaishnavi Petroleums",
    "latitude": 15.319893,
    "longitude": 76.310748,
    "city": "",
    "state": "Karnataka",
    "source": "osm_allstations"
  },
  {
    "name": "Gail Cng",
    "latitude": 12.873365,
    "longitude": 77.540406,
    "city": "",
    "state": "Tamil Nadu",
    "source": "osm_allstations"
  },
  {
    "name": "Indian Oil",
    "latitude": 12.904067,
    "longitude": 77.746729,
    "city": "",
    "state": "Tamil Nadu",
    "source": "osm_allstations"
  },
  {
    "name": "Mahanagar Gas",
    "latitude": 19.175557,
    "longitude": 72.864375,
    "city": "",
    "state": "Maharashtra",
    "source": "osm_allstations"
  },
  {
    "name": "Indraprastha Gas Limited",
    "latitude": 28.606621,
    "longitude": 77.14166,
    "city": "",
    "state": "Delhi",
    "source": "osm_allstations"
  },
  {
    "name": "Mngl Cng Pump",
    "latitude": 18.603147,
    "longitude": 73.746881,
    "city": "",
    "state": "Maharashtra",
    "source": "osm_allstations"
  },
  {
    "name": "Indraprastha Gas Limited",
    "latitude": 28.686107,
    "longitude": 77.330811,
    "city": "",
    "state": "Delhi",
    "source": "osm_allstations"
  },
  {
    "name": "Indian Auto Gas",
    "latitude": 12.951109,
    "longitude": 77.745369,
    "city": "",
    "state": "Tamil Nadu",
    "source": "osm_allstations"
  },
  {
    "name": "Indian Oil Nadayara",
    "latitude": 8.755443,
    "longitude": 76.721274,
    "city": "Varkala",
    "state": "Kerala",
    "source": "osm_allstations"
  },
  {
    "name": "Igl",
    "latitude": 28.310444,
    "longitude": 77.066279,
    "city": "",
    "state": "Haryana",
    "source": "osm_allstations"
  },
  {
    "name": "Mahanagar Gas Cng Station",
    "latitude": 19.175428,
    "longitude": 73.002309,
    "city": "",
    "state": "Maharashtra",
    "source": "osm_allstations"
  },
  {
    "name": "Saddharma Cng Gas Station",
    "latitude": 15.250734,
    "longitude": 76.360751,
    "city": "",
    "state": "Karnataka",
    "source": "osm_allstations"
  },
  {
    "name": "Gail Gas Cng Station",
    "latitude": 13.005028,
    "longitude": 77.685633,
    "city": "",
    "state": "Tamil Nadu",
    "source": "osm_allstations"
  },
  {
    "name": "Sabarmati Gas Station",
    "latitude": 23.581764,
    "longitude": 72.965692,
    "city": "",
    "state": "Gujarat",
    "source": "osm_allstations"
  },
  {
    "name": "Igl",
    "latitude": 28.666346,
    "longitude": 77.307588,
    "city": "",
    "state": "Delhi",
    "source": "osm_allstations"
  },
  {
    "name": "Ahmad Cng",
    "latitude": 24.655383,
    "longitude": 68.822868,
    "city": "",
    "state": "Gujarat",
    "source": "osm_allstations"
  },
  {
    "name": "Bharat Petroleum",
    "latitude": 19.302918,
    "longitude": 74.170591,
    "city": "",
    "state": "Maharashtra",
    "source": "osm_allstations"
  },
  {
    "name": "Bharat Petroleum",
    "latitude": 20.220063,
    "longitude": 79.018915,
    "city": "",
    "state": "Maharashtra",
    "source": "osm_allstations"
  },
  {
    "name": "Hp",
    "latitude": 26.936769,
    "longitude": 80.980863,
    "city": "",
    "state": "Uttar Pradesh",
    "source": "osm_allstations"
  },
  {
    "name": "Gail'S",
    "latitude": 13.065986,
    "longitude": 77.641431,
    "city": "",
    "state": "Tamil Nadu",
    "source": "osm_allstations"
  },
  {
    "name": "Laxmi Petroleum (Bharat Petroleum)",
    "latitude": 18.577979,
    "longitude": 73.716079,
    "city": "",
    "state": "Maharashtra",
    "source": "osm_allstations"
  },
  {
    "name": "Indraprastha Cng Gas Station Pump",
    "latitude": 28.575236,
    "longitude": 77.067756,
    "city": "",
    "state": "Delhi",
    "source": "osm_allstations"
  },
  {
    "name": "Hcg Cng Station",
    "latitude": 28.431899,
    "longitude": 77.099737,
    "city": "",
    "state": "Delhi",
    "source": "osm_allstations"
  },
  {
    "name": "Igl Cng Station",
    "latitude": 28.667582,
    "longitude": 77.087513,
    "city": "",
    "state": "Delhi",
    "source": "osm_allstations"
  },
  {
    "name": "Apex Cng",
    "latitude": 30.178928,
    "longitude": 71.445873,
    "city": "ملتان",
    "state": "Rajasthan",
    "source": "osm_allstations"
  },
  {
    "name": "Askari Cng",
    "latitude": 30.181289,
    "longitude": 71.439328,
    "city": "ملتان",
    "state": "Rajasthan",
    "source": "osm_allstations"
  },
  {
    "name": "Tuman Cng Station Dera Adda",
    "latitude": 30.18779,
    "longitude": 71.448061,
    "city": "ملتان",
    "state": "Rajasthan",
    "source": "osm_allstations"
  },
  {
    "name": "Missri Cng",
    "latitude": 29.386024,
    "longitude": 71.662831,
    "city": "BAHAWALPUR",
    "state": "Rajasthan",
    "source": "osm_allstations"
  },
  {
    "name": "Cng Station",
    "latitude": 30.045805,
    "longitude": 70.653977,
    "city": "",
    "state": "Rajasthan",
    "source": "osm_allstations"
  },
  {
    "name": "Unicom Cng Filling Station",
    "latitude": 24.295271,
    "longitude": 89.9182,
    "city": "",
    "state": "Assam",
    "source": "osm_allstations"
  },
  {
    "name": "Total Petrol & Cng",
    "latitude": 31.501794,
    "longitude": 74.423003,
    "city": "",
    "state": "Punjab",
    "source": "osm_allstations"
  },
  {
    "name": "Khan Cng",
    "latitude": 32.589093,
    "longitude": 74.051447,
    "city": "gujrat",
    "state": "Jammu and Kashmir",
    "source": "osm_allstations"
  },
  {
    "name": "Cng",
    "latitude": 32.583485,
    "longitude": 74.093077,
    "city": "",
    "state": "Jammu and Kashmir",
    "source": "osm_allstations"
  },
  {
    "name": "Cng",
    "latitude": 32.496433,
    "longitude": 74.088711,
    "city": "",
    "state": "Punjab",
    "source": "osm_allstations"
  },
  {
    "name": "Supatola Cng Filling Station",
    "latitude": 24.81239,
    "longitude": 92.157208,
    "city": "",
    "state": "Assam",
    "source": "osm_allstations"
  },
  {
    "name": "Hassan Abdullah Cng",
    "latitude": 32.402839,
    "longitude": 74.122551,
    "city": "",
    "state": "Punjab",
    "source": "osm_allstations"
  },
  {
    "name": "Admore Cng",
    "latitude": 32.603444,
    "longitude": 74.136203,
    "city": "",
    "state": "Jammu and Kashmir",
    "source": "osm_allstations"
  },
  {
    "name": "Cng",
    "latitude": 32.819329,
    "longitude": 73.85516,
    "city": "",
    "state": "Jammu and Kashmir",
    "source": "osm_allstations"
  },
  {
    "name": "Al Ammar Cng",
    "latitude": 33.0003,
    "longitude": 73.665509,
    "city": "",
    "state": "Jammu and Kashmir",
    "source": "osm_allstations"
  },
  {
    "name": "Mahfooz Cng",
    "latitude": 32.948544,
    "longitude": 73.745076,
    "city": "",
    "state": "Jammu and Kashmir",
    "source": "osm_allstations"
  },
  {
    "name": "Ravi Cng Station",
    "latitude": 31.707175,
    "longitude": 74.271945,
    "city": "Kala Shah Kaku",
    "state": "Punjab",
    "source": "osm_allstations"
  },
  {
    "name": "Tahir Cng Station",
    "latitude": 31.718152,
    "longitude": 74.269813,
    "city": "Kala Shah Kaku",
    "state": "Punjab",
    "source": "osm_allstations"
  },
  {
    "name": "Pashabhai B Patel Petrol N Cng",
    "latitude": 23.587755,
    "longitude": 72.377049,
    "city": "",
    "state": "Gujarat",
    "source": "osm_allstations"
  },
  {
    "name": "Cng",
    "latitude": 32.646765,
    "longitude": 74.211716,
    "city": "",
    "state": "Jammu and Kashmir",
    "source": "osm_allstations"
  },
  {
    "name": "Total Cng",
    "latitude": 32.904971,
    "longitude": 73.739221,
    "city": "",
    "state": "Jammu and Kashmir",
    "source": "osm_allstations"
  },
  {
    "name": "Al Rehmat Cng",
    "latitude": 32.291967,
    "longitude": 74.151259,
    "city": "",
    "state": "Punjab",
    "source": "osm_allstations"
  },
  {
    "name": "Paris Cng",
    "latitude": 32.407167,
    "longitude": 74.121503,
    "city": "",
    "state": "Punjab",
    "source": "osm_allstations"
  },
  {
    "name": "Ittehad Cng",
    "latitude": 32.341036,
    "longitude": 74.352403,
    "city": "",
    "state": "Punjab",
    "source": "osm_allstations"
  },
  {
    "name": "Din Cng",
    "latitude": 32.340086,
    "longitude": 74.379694,
    "city": "",
    "state": "Punjab",
    "source": "osm_allstations"
  },
  {
    "name": "Cng Station",
    "latitude": 32.184414,
    "longitude": 74.181501,
    "city": "Gujranwala",
    "state": "Punjab",
    "source": "osm_allstations"
  },
  {
    "name": "Cng Station",
    "latitude": 32.18026,
    "longitude": 74.182685,
    "city": "Gujranwala",
    "state": "Punjab",
    "source": "osm_allstations"
  },
  {
    "name": "Cng Station",
    "latitude": 32.170636,
    "longitude": 74.185669,
    "city": "Gujranwala",
    "state": "Punjab",
    "source": "osm_allstations"
  },
  {
    "name": "Mario Cng",
    "latitude": 32.90438,
    "longitude": 73.735253,
    "city": "",
    "state": "Jammu and Kashmir",
    "source": "osm_allstations"
  },
  {
    "name": "Cng",
    "latitude": 19.076587,
    "longitude": 72.877234,
    "city": "",
    "state": "Maharashtra",
    "source": "osm_allstations"
  },
  {
    "name": "Adani Cng Gas Station",
    "latitude": 23.011445,
    "longitude": 72.586437,
    "city": "",
    "state": "Gujarat",
    "source": "osm_allstations"
  },
  {
    "name": "Bharat Petroleum Cng",
    "latitude": 23.279637,
    "longitude": 72.440781,
    "city": "",
    "state": "Gujarat",
    "source": "osm_allstations"
  },
  {
    "name": "Bharat Petroleum Cng",
    "latitude": 23.372168,
    "longitude": 72.408946,
    "city": "",
    "state": "Gujarat",
    "source": "osm_allstations"
  },
  {
    "name": "Cng",
    "latitude": 22.561969,
    "longitude": 71.723137,
    "city": "",
    "state": "Gujarat",
    "source": "osm_allstations"
  },
  {
    "name": "Cng Station Mother",
    "latitude": 23.568588,
    "longitude": 72.35461,
    "city": "",
    "state": "Gujarat",
    "source": "osm_allstations"
  },
  {
    "name": "Bharat Patrolium Cng",
    "latitude": 23.276323,
    "longitude": 72.443245,
    "city": "",
    "state": "Gujarat",
    "source": "osm_allstations"
  },
  {
    "name": "Megar Group Cng Station",
    "latitude": 30.075331,
    "longitude": 71.312284,
    "city": "",
    "state": "Rajasthan",
    "source": "osm_allstations"
  },
  {
    "name": "Cng Adani",
    "latitude": 23.013519,
    "longitude": 72.564403,
    "city": "",
    "state": "Gujarat",
    "source": "osm_allstations"
  },
  {
    "name": "Cng Petrol Pump",
    "latitude": 23.052345,
    "longitude": 72.631946,
    "city": "",
    "state": "Gujarat",
    "source": "osm_allstations"
  },
  {
    "name": "Economic Drive Cng",
    "latitude": 30.077282,
    "longitude": 71.185496,
    "city": "",
    "state": "Rajasthan",
    "source": "osm_allstations"
  },
  {
    "name": "Cng Filling Station",
    "latitude": 30.10901,
    "longitude": 71.210599,
    "city": "",
    "state": "Rajasthan",
    "source": "osm_allstations"
  },
  {
    "name": "Cng Pump",
    "latitude": 28.558454,
    "longitude": 77.106734,
    "city": "",
    "state": "Delhi",
    "source": "osm_allstations"
  },
  {
    "name": "Petrol Cng Pump",
    "latitude": 23.021968,
    "longitude": 72.650824,
    "city": "",
    "state": "Gujarat",
    "source": "osm_allstations"
  },
  {
    "name": "Gujarat Gas Cng Pump",
    "latitude": 22.714545,
    "longitude": 71.605548,
    "city": "",
    "state": "Gujarat",
    "source": "osm_allstations"
  },
  {
    "name": "Gujarat Gas Cng",
    "latitude": 22.860433,
    "longitude": 71.797888,
    "city": "",
    "state": "Gujarat",
    "source": "osm_allstations"
  },
  {
    "name": "Cng Pump Gspc",
    "latitude": 22.539844,
    "longitude": 72.928869,
    "city": "",
    "state": "Gujarat",
    "source": "osm_allstations"
  },
  {
    "name": "Cng Petrol Pump",
    "latitude": 22.345042,
    "longitude": 73.202483,
    "city": "",
    "state": "Gujarat",
    "source": "osm_allstations"
  },
  {
    "name": "Roshni Cng",
    "latitude": 31.8902,
    "longitude": 74.238466,
    "city": "",
    "state": "Punjab",
    "source": "osm_allstations"
  },
  {
    "name": "Cng Fuel Station",
    "latitude": 28.59064,
    "longitude": 77.03691,
    "city": "",
    "state": "Delhi",
    "source": "osm_allstations"
  },
  {
    "name": "Cng Indian Oil Petrol Pump",
    "latitude": 22.284186,
    "longitude": 70.769197,
    "city": "",
    "state": "Gujarat",
    "source": "osm_allstations"
  },
  {
    "name": "Cng Indian Oil Petrol Pump",
    "latitude": 22.258577,
    "longitude": 70.704029,
    "city": "",
    "state": "Gujarat",
    "source": "osm_allstations"
  },
  {
    "name": "Cng Pump",
    "latitude": 22.574383,
    "longitude": 71.815088,
    "city": "",
    "state": "Gujarat",
    "source": "osm_allstations"
  },
  {
    "name": "Cng Hp Petroleum",
    "latitude": 22.646179,
    "longitude": 72.206306,
    "city": "",
    "state": "Gujarat",
    "source": "osm_allstations"
  },
  {
    "name": "Cng",
    "latitude": 22.56408,
    "longitude": 71.717619,
    "city": "",
    "state": "Gujarat",
    "source": "osm_allstations"
  },
  {
    "name": "Attock Cng",
    "latitude": 31.933933,
    "longitude": 74.229245,
    "city": "",
    "state": "Punjab",
    "source": "osm_allstations"
  },
  {
    "name": "Cng Gas Only",
    "latitude": 23.210959,
    "longitude": 72.52955,
    "city": "",
    "state": "Gujarat",
    "source": "osm_allstations"
  },
  {
    "name": "Cng Bharat Petroleum",
    "latitude": 23.040089,
    "longitude": 72.57813,
    "city": "",
    "state": "Gujarat",
    "source": "osm_allstations"
  },
  {
    "name": "Petronas Cng Gas Station",
    "latitude": 12.98575,
    "longitude": 77.479754,
    "city": "",
    "state": "Tamil Nadu",
    "source": "osm_allstations"
  },
  {
    "name": "Cng Gujarat",
    "latitude": 22.079716,
    "longitude": 73.160338,
    "city": "",
    "state": "Gujarat",
    "source": "osm_allstations"
  },
  {
    "name": "Total Cng Station",
    "latitude": 32.045501,
    "longitude": 74.210053,
    "city": "",
    "state": "Punjab",
    "source": "osm_allstations"
  },
  {
    "name": "Cng Petrol Pump",
    "latitude": 21.298809,
    "longitude": 72.953897,
    "city": "",
    "state": "Gujarat",
    "source": "osm_allstations"
  },
  {
    "name": "Zoom (Chohan Filling & Cng)",
    "latitude": 32.483952,
    "longitude": 74.461586,
    "city": "Sialkot",
    "state": "Punjab",
    "source": "osm_allstations"
  },
  {
    "name": "Askari Cng Station",
    "latitude": 32.499476,
    "longitude": 74.546065,
    "city": "Sialkot",
    "state": "Punjab",
    "source": "osm_allstations"
  },
  {
    "name": "Mehar Cng Station",
    "latitude": 32.181323,
    "longitude": 74.183551,
    "city": "Gujranwala",
    "state": "Punjab",
    "source": "osm_allstations"
  },
  {
    "name": "Sewa Cng Station",
    "latitude": 32.132547,
    "longitude": 74.193742,
    "city": "Asghar Colony",
    "state": "Punjab",
    "source": "osm_allstations"
  },
  {
    "name": "National Cng",
    "latitude": 31.983616,
    "longitude": 74.220294,
    "city": "Kamoki",
    "state": "Punjab",
    "source": "osm_allstations"
  },
  {
    "name": "Al Makkah Cng",
    "latitude": 31.96624,
    "longitude": 74.223562,
    "city": "Kamoki",
    "state": "Punjab",
    "source": "osm_allstations"
  },
  {
    "name": "Mian Cng Kamoki",
    "latitude": 31.963738,
    "longitude": 74.224011,
    "city": "Kamoki",
    "state": "Punjab",
    "source": "osm_allstations"
  },
  {
    "name": "Vigor Cng Station",
    "latitude": 31.958277,
    "longitude": 74.225928,
    "city": "Kamoki",
    "state": "Punjab",
    "source": "osm_allstations"
  },
  {
    "name": "Anmol Cng",
    "latitude": 31.958719,
    "longitude": 74.224981,
    "city": "Kamoki",
    "state": "Punjab",
    "source": "osm_allstations"
  },
  {
    "name": "Vigor Cng",
    "latitude": 31.953379,
    "longitude": 74.22688,
    "city": "Kamoki",
    "state": "Punjab",
    "source": "osm_allstations"
  },
  {
    "name": "Attock Petroleum & Cng",
    "latitude": 31.935512,
    "longitude": 74.22918,
    "city": "Kamoki",
    "state": "Punjab",
    "source": "osm_allstations"
  },
  {
    "name": "Al Makkhah Cng Station",
    "latitude": 31.818061,
    "longitude": 74.251603,
    "city": "Muridke",
    "state": "Punjab",
    "source": "osm_allstations"
  },
  {
    "name": "Super Cng",
    "latitude": 31.779873,
    "longitude": 74.258451,
    "city": "Muridke",
    "state": "Punjab",
    "source": "osm_allstations"
  },
  {
    "name": "Go Cng Station",
    "latitude": 31.768993,
    "longitude": 74.260132,
    "city": "Muridke",
    "state": "Punjab",
    "source": "osm_allstations"
  },
  {
    "name": "Chatta Cng Station",
    "latitude": 31.767206,
    "longitude": 74.260507,
    "city": "Muridke",
    "state": "Punjab",
    "source": "osm_allstations"
  },
  {
    "name": "Cng Station Narowal",
    "latitude": 31.81286,
    "longitude": 74.261798,
    "city": "Muridke",
    "state": "Punjab",
    "source": "osm_allstations"
  },
  {
    "name": "Gas Line Cng",
    "latitude": 31.745818,
    "longitude": 74.263063,
    "city": "Kala Shah Kaku",
    "state": "Punjab",
    "source": "osm_allstations"
  },
  {
    "name": "Anmol Cng",
    "latitude": 31.727107,
    "longitude": 74.26706,
    "city": "Kala Shah Kaku",
    "state": "Punjab",
    "source": "osm_allstations"
  },
  {
    "name": "Rk Cng Station",
    "latitude": 31.709781,
    "longitude": 74.270768,
    "city": "Kala Shah Kaku",
    "state": "Punjab",
    "source": "osm_allstations"
  },
  {
    "name": "Cng Station",
    "latitude": 31.68715,
    "longitude": 74.27556,
    "city": "Kala Shah Kaku",
    "state": "Punjab",
    "source": "osm_allstations"
  },
  {
    "name": "Malik Cng & Filling Station",
    "latitude": 31.655985,
    "longitude": 74.282856,
    "city": "Shahdara",
    "state": "Punjab",
    "source": "osm_allstations"
  },
  {
    "name": "Ali Cng Station",
    "latitude": 31.614715,
    "longitude": 74.290478,
    "city": "Shahdara",
    "state": "Punjab",
    "source": "osm_allstations"
  },
  {
    "name": "Waleed Cng Station",
    "latitude": 31.619424,
    "longitude": 74.246662,
    "city": "Shahdara",
    "state": "Punjab",
    "source": "osm_allstations"
  },
  {
    "name": "Ma International Cng",
    "latitude": 31.615716,
    "longitude": 74.273106,
    "city": "Shahdara",
    "state": "Punjab",
    "source": "osm_allstations"
  },
  {
    "name": "Smart Cng",
    "latitude": 31.724131,
    "longitude": 73.997501,
    "city": "Sheikhupura",
    "state": "Punjab",
    "source": "osm_allstations"
  },
  {
    "name": "Al-Sultan Cng",
    "latitude": 31.726606,
    "longitude": 73.998666,
    "city": "Sheikhupura",
    "state": "Punjab",
    "source": "osm_allstations"
  },
  {
    "name": "Motorway Cng",
    "latitude": 31.728122,
    "longitude": 73.999762,
    "city": "Sheikhupura",
    "state": "Punjab",
    "source": "osm_allstations"
  },
  {
    "name": "Makkah Cng",
    "latitude": 31.732107,
    "longitude": 74.00164,
    "city": "Sheikhupura",
    "state": "Punjab",
    "source": "osm_allstations"
  },
  {
    "name": "Motorway Cng",
    "latitude": 31.743983,
    "longitude": 74.006958,
    "city": "Sheikhupura",
    "state": "Punjab",
    "source": "osm_allstations"
  },
  {
    "name": "Cng Station",
    "latitude": 31.707078,
    "longitude": 74.009181,
    "city": "Sheikhupura",
    "state": "Punjab",
    "source": "osm_allstations"
  },
  {
    "name": "Shell Petrol Pump & Cng Station",
    "latitude": 31.472642,
    "longitude": 74.302398,
    "city": "Lahore",
    "state": "Punjab",
    "source": "osm_allstations"
  },
  {
    "name": "Prime Cng",
    "latitude": 31.468366,
    "longitude": 74.304574,
    "city": "Lahore",
    "state": "Punjab",
    "source": "osm_allstations"
  },
  {
    "name": "Askari Cng Station",
    "latitude": 31.458805,
    "longitude": 74.329044,
    "city": "Lahore",
    "state": "Punjab",
    "source": "osm_allstations"
  },
  {
    "name": "Raceway Cng Systems",
    "latitude": 29.420894,
    "longitude": 71.666987,
    "city": "Bahawalpur",
    "state": "Rajasthan",
    "source": "osm_allstations"
  },
  {
    "name": "Rehman Cng",
    "latitude": 29.386835,
    "longitude": 71.691223,
    "city": "Bahawalpur",
    "state": "Rajasthan",
    "source": "osm_allstations"
  },
  {
    "name": "Cng Vadodara",
    "latitude": 22.315289,
    "longitude": 73.164874,
    "city": "",
    "state": "Gujarat",
    "source": "osm_allstations"
  },
  {
    "name": "Ak Cng",
    "latitude": 31.581007,
    "longitude": 74.381466,
    "city": "",
    "state": "Punjab",
    "source": "osm_allstations"
  },
  {
    "name": "Hascol Petrol Cng",
    "latitude": 32.716045,
    "longitude": 73.941573,
    "city": "",
    "state": "Jammu and Kashmir",
    "source": "osm_allstations"
  },
  {
    "name": "Korean Cng Station",
    "latitude": 24.282842,
    "longitude": 89.917962,
    "city": "",
    "state": "Assam",
    "source": "osm_allstations"
  },
  {
    "name": "Cng Filling Station সিএনজি ফিলিং সটেশন",
    "latitude": 24.312459,
    "longitude": 89.922156,
    "city": "",
    "state": "Assam",
    "source": "osm_allstations"
  },
  {
    "name": "Samko Cng",
    "latitude": 24.330662,
    "longitude": 89.924651,
    "city": "",
    "state": "Assam",
    "source": "osm_allstations"
  },
  {
    "name": "R Rahman Cng Felling Station",
    "latitude": 24.927028,
    "longitude": 91.967792,
    "city": "Sylhet",
    "state": "Assam",
    "source": "osm_allstations"
  },
  {
    "name": "Chetona Cng Bogra Ltd চেতনা সিএনজি বগুডা লিমিটেড",
    "latitude": 24.799928,
    "longitude": 89.386667,
    "city": "",
    "state": "West Bengal",
    "source": "osm_allstations"
  },
  {
    "name": "Diba Rathri Cng Filling Station",
    "latitude": 24.867095,
    "longitude": 91.856993,
    "city": "Sylhet",
    "state": "Assam",
    "source": "osm_allstations"
  },
  {
    "name": "Cng/Petrol Station",
    "latitude": 24.710786,
    "longitude": 91.739377,
    "city": "Sylhet",
    "state": "Assam",
    "source": "osm_allstations"
  },
  {
    "name": "Rashid Cng Petrol Station",
    "latitude": 24.523206,
    "longitude": 91.589911,
    "city": "Sylhet",
    "state": "Tripura",
    "source": "osm_allstations"
  },
  {
    "name": "Cng Bamanbore",
    "latitude": 22.42548,
    "longitude": 71.085541,
    "city": "",
    "state": "Gujarat",
    "source": "osm_allstations"
  },
  {
    "name": "Cng Gas Station",
    "latitude": 23.084673,
    "longitude": 72.686259,
    "city": "",
    "state": "Gujarat",
    "source": "osm_allstations"
  },
  {
    "name": "Cng -Kabir Petrolum",
    "latitude": 21.838545,
    "longitude": 73.052773,
    "city": "",
    "state": "Gujarat",
    "source": "osm_allstations"
  },
  {
    "name": "Cng Stattion",
    "latitude": 22.935932,
    "longitude": 72.49878,
    "city": "",
    "state": "Gujarat",
    "source": "osm_allstations"
  },
  {
    "name": "Cng And Petrol Pump",
    "latitude": 23.028945,
    "longitude": 72.673433,
    "city": "",
    "state": "Gujarat",
    "source": "osm_allstations"
  },
  {
    "name": "Adani Cng Station",
    "latitude": 28.400755,
    "longitude": 77.374226,
    "city": "",
    "state": "Haryana",
    "source": "osm_allstations"
  },
  {
    "name": "Naresh Desai Cng Pump",
    "latitude": 20.321529,
    "longitude": 72.902689,
    "city": "",
    "state": "Daman and Diu",
    "source": "osm_allstations"
  },
  {
    "name": "Cng Station",
    "latitude": 23.161916,
    "longitude": 72.588276,
    "city": "",
    "state": "Gujarat",
    "source": "osm_allstations"
  },
  {
    "name": "Cng Pump Bharat Petroleum",
    "latitude": 22.234306,
    "longitude": 73.188365,
    "city": "",
    "state": "Gujarat",
    "source": "osm_allstations"
  },
  {
    "name": "Indian Oil Cng N Petrol",
    "latitude": 23.029281,
    "longitude": 72.475028,
    "city": "",
    "state": "Gujarat",
    "source": "osm_allstations"
  },
  {
    "name": "Zoom Cng",
    "latitude": 32.246534,
    "longitude": 74.124695,
    "city": "",
    "state": "Punjab",
    "source": "osm_allstations"
  },
  {
    "name": "M/S Reaz Cng & Filling Station",
    "latitude": 24.721475,
    "longitude": 90.408605,
    "city": "",
    "state": "Assam",
    "source": "osm_allstations"
  },
  {
    "name": "S Rahman Filling And Cng Station এস রহমান ফিলিং এনড সিএনজি সটেশন",
    "latitude": 23.06165,
    "longitude": 91.361939,
    "city": "",
    "state": "Tripura",
    "source": "osm_allstations"
  },
  {
    "name": "Universal Cng Filling Station ইউনিভারসাল সিএনজি ফিলিং সটেশন",
    "latitude": 23.080097,
    "longitude": 91.354668,
    "city": "",
    "state": "Tripura",
    "source": "osm_allstations"
  },
  {
    "name": "Sialkot Cng",
    "latitude": 32.53582,
    "longitude": 74.533693,
    "city": "",
    "state": "Punjab",
    "source": "osm_allstations"
  },
  {
    "name": "Cng Pump",
    "latitude": 22.379654,
    "longitude": 73.191663,
    "city": "",
    "state": "Gujarat",
    "source": "osm_allstations"
  },
  {
    "name": "Cng",
    "latitude": 18.630737,
    "longitude": 73.742847,
    "city": "",
    "state": "Maharashtra",
    "source": "osm_allstations"
  },
  {
    "name": "Sns Cng Station Haker Pin এসএনএস সিএনজি সটেশন কার পিন",
    "latitude": 24.423988,
    "longitude": 90.388153,
    "city": "",
    "state": "Assam",
    "source": "osm_allstations"
  },
  {
    "name": "Indian Oil Petrol Cng Pump",
    "latitude": 18.569502,
    "longitude": 73.817207,
    "city": "Pimpri Chinchwad",
    "state": "Maharashtra",
    "source": "osm_allstations"
  },
  {
    "name": "Surma Petroleum & Cng Filling Station",
    "latitude": 24.912371,
    "longitude": 91.828178,
    "city": "",
    "state": "Assam",
    "source": "osm_allstations"
  },
  {
    "name": "Safatullah Cng & Petrol Station",
    "latitude": 24.91362,
    "longitude": 91.822823,
    "city": "",
    "state": "Assam",
    "source": "osm_allstations"
  },
  {
    "name": "Cng Pump",
    "latitude": 18.646833,
    "longitude": 73.742276,
    "city": "Ravet",
    "state": "Maharashtra",
    "source": "osm_allstations"
  },
  {
    "name": "Nazipur Cng Stand, Nazipur, Naogaon",
    "latitude": 25.040989,
    "longitude": 88.760424,
    "city": "",
    "state": "West Bengal",
    "source": "osm_allstations"
  },
  {
    "name": "Indraprastha Gas Limited Cng Station",
    "latitude": 28.525984,
    "longitude": 77.37028,
    "city": "",
    "state": "Haryana",
    "source": "osm_allstations"
  },
  {
    "name": "Bandhu Cng Autos, Naogaon",
    "latitude": 24.804255,
    "longitude": 88.958349,
    "city": "",
    "state": "West Bengal",
    "source": "osm_allstations"
  },
  {
    "name": "Gujarat Gas Cng Station",
    "latitude": 22.843443,
    "longitude": 70.859745,
    "city": "",
    "state": "Gujarat",
    "source": "osm_allstations"
  },
  {
    "name": "Ashoka Cng Pump",
    "latitude": 18.376871,
    "longitude": 76.558271,
    "city": "",
    "state": "Karnataka",
    "source": "osm_allstations"
  },
  {
    "name": "Ashoka Cng",
    "latitude": 18.385962,
    "longitude": 76.550967,
    "city": "",
    "state": "Karnataka",
    "source": "osm_allstations"
  },
  {
    "name": "Cng Indian Oil",
    "latitude": 26.899998,
    "longitude": 81.333787,
    "city": "",
    "state": "Uttar Pradesh",
    "source": "osm_allstations"
  },
  {
    "name": "Gail Gas Cng Station",
    "latitude": 12.947796,
    "longitude": 74.812042,
    "city": "Dakshina Kannada",
    "state": "Karnataka",
    "source": "osm_allstations"
  },
  {
    "name": "Palak Cng, Gas Station",
    "latitude": 24.19643,
    "longitude": 90.424775,
    "city": "",
    "state": "Assam",
    "source": "osm_allstations"
  },
  {
    "name": "Star Filling Station Cng, Gas Station",
    "latitude": 24.212387,
    "longitude": 90.416235,
    "city": "",
    "state": "Assam",
    "source": "osm_allstations"
  },
  {
    "name": "Maona Cng Filling Station., Gas Station",
    "latitude": 24.246853,
    "longitude": 90.401306,
    "city": "",
    "state": "Assam",
    "source": "osm_allstations"
  },
  {
    "name": "Moha Cng Filling Station, Gas Station",
    "latitude": 24.215069,
    "longitude": 90.414961,
    "city": "",
    "state": "Assam",
    "source": "osm_allstations"
  },
  {
    "name": "Cng Station Bhaluka To Broad Bazarand Burina",
    "latitude": 24.400292,
    "longitude": 90.38591,
    "city": "",
    "state": "Assam",
    "source": "osm_allstations"
  },
  {
    "name": "Akiz Cng Station, Gas Station",
    "latitude": 24.714865,
    "longitude": 90.4104,
    "city": "",
    "state": "Assam",
    "source": "osm_allstations"
  },
  {
    "name": "Mymensingh Cng Pump Sy",
    "latitude": 24.713746,
    "longitude": 90.411419,
    "city": "",
    "state": "Assam",
    "source": "osm_allstations"
  },
  {
    "name": "Al-Jalal Cng And Lpg Pump",
    "latitude": 24.89614,
    "longitude": 91.904749,
    "city": "",
    "state": "Assam",
    "source": "osm_allstations"
  },
  {
    "name": "High Pressure Cng Station, Gas Station",
    "latitude": 24.238359,
    "longitude": 89.9513,
    "city": "",
    "state": "Assam",
    "source": "osm_allstations"
  },
  {
    "name": "Nahian Cng Filling Station",
    "latitude": 24.177969,
    "longitude": 90.012013,
    "city": "",
    "state": "Assam",
    "source": "osm_allstations"
  },
  {
    "name": "Nitol Cng Filling Station, Gas Station",
    "latitude": 24.241734,
    "longitude": 89.943018,
    "city": "",
    "state": "Assam",
    "source": "osm_allstations"
  },
  {
    "name": "Akij Cng Filing Station, Gas Station",
    "latitude": 24.241323,
    "longitude": 89.94448,
    "city": "",
    "state": "Assam",
    "source": "osm_allstations"
  },
  {
    "name": "Intraco Tangail Cng, Gas Station",
    "latitude": 24.281523,
    "longitude": 89.917954,
    "city": "",
    "state": "Assam",
    "source": "osm_allstations"
  },
  {
    "name": "Cng Filling Shop, Gas Station",
    "latitude": 24.596628,
    "longitude": 90.025516,
    "city": "",
    "state": "Assam",
    "source": "osm_allstations"
  },
  {
    "name": "Alhaz Nobab Ali Cng And Filling Station, Gas Station",
    "latitude": 24.765766,
    "longitude": 90.292101,
    "city": "",
    "state": "Assam",
    "source": "osm_allstations"
  },
  {
    "name": "Alhaz Nobab Ali Cng And Filling Station, Gas Station",
    "latitude": 24.761816,
    "longitude": 90.266797,
    "city": "",
    "state": "Assam",
    "source": "osm_allstations"
  },
  {
    "name": "Mymensingh Cng Auto-Rickshaw Station",
    "latitude": 24.74761,
    "longitude": 90.421016,
    "city": "",
    "state": "Assam",
    "source": "osm_allstations"
  },
  {
    "name": "Modhumati Cng Ltd., Gas Station",
    "latitude": 23.850039,
    "longitude": 89.863532,
    "city": "",
    "state": "West Bengal",
    "source": "osm_allstations"
  },
  {
    "name": "Akij Cng Station Ltd., Gas Station",
    "latitude": 23.84294,
    "longitude": 89.81107,
    "city": "",
    "state": "West Bengal",
    "source": "osm_allstations"
  },
  {
    "name": "Gujarat Gas Cng Station",
    "latitude": 21.750262,
    "longitude": 72.133216,
    "city": "",
    "state": "Gujarat",
    "source": "osm_allstations"
  },
  {
    "name": "Indraprastha Gas Limited Cng Station",
    "latitude": 28.661908,
    "longitude": 77.299923,
    "city": "",
    "state": "Delhi",
    "source": "osm_allstations"
  },
  {
    "name": "Grand Filling Petrol & Cng Station",
    "latitude": 30.289477,
    "longitude": 76.348328,
    "city": "Sher Majra",
    "state": "Punjab",
    "source": "osm_allstations"
  },
  {
    "name": "Jamalpur Cng Station, Cng Fitment Center",
    "latitude": 24.916589,
    "longitude": 89.966299,
    "city": "",
    "state": "Assam",
    "source": "osm_allstations"
  },
  {
    "name": "Ghusia Cng",
    "latitude": 32.541382,
    "longitude": 74.065218,
    "city": "",
    "state": "Punjab",
    "source": "osm_allstations"
  },
  {
    "name": "Taj Cng Station, Gas Station",
    "latitude": 25.006831,
    "longitude": 90.02321,
    "city": "",
    "state": "Meghalaya",
    "source": "osm_allstations"
  },
  {
    "name": "Kodda Cng Stand, Car Inspection Station",
    "latitude": 24.394697,
    "longitude": 89.691175,
    "city": "",
    "state": "West Bengal",
    "source": "osm_allstations"
  },
  {
    "name": "Intraco Cng And Lpg Station, Gas Station",
    "latitude": 24.782609,
    "longitude": 89.392933,
    "city": "",
    "state": "West Bengal",
    "source": "osm_allstations"
  },
  {
    "name": "Navana Cng Station Bogura,Gas Station",
    "latitude": 24.853756,
    "longitude": 89.372227,
    "city": "",
    "state": "West Bengal",
    "source": "osm_allstations"
  },
  {
    "name": "Dottobari Cng Stand, Association",
    "latitude": 24.855102,
    "longitude": 89.372401,
    "city": "",
    "state": "West Bengal",
    "source": "osm_allstations"
  },
  {
    "name": "Rumana Saif Enterprises, Cng Fitment Center",
    "latitude": 24.948015,
    "longitude": 89.347595,
    "city": "",
    "state": "West Bengal",
    "source": "osm_allstations"
  },
  {
    "name": "Hazrat Raypuri Cng Filling Station, Gas Station",
    "latitude": 24.84527,
    "longitude": 92.160808,
    "city": "",
    "state": "Assam",
    "source": "osm_allstations"
  },
  {
    "name": "Bharat Petroleum & Cng Pump",
    "latitude": 16.003401,
    "longitude": 73.688949,
    "city": "",
    "state": "Maharashtra",
    "source": "osm_allstations"
  },
  {
    "name": "Cng Station",
    "latitude": 32.485046,
    "longitude": 74.464051,
    "city": "Sialkot",
    "state": "Punjab",
    "source": "osm_allstations"
  },
  {
    "name": "Power Cng",
    "latitude": 32.509389,
    "longitude": 74.528816,
    "city": "",
    "state": "Punjab",
    "source": "osm_allstations"
  },
  {
    "name": "Cng Filling Station",
    "latitude": 32.435777,
    "longitude": 73.58019,
    "city": "",
    "state": "Jammu and Kashmir",
    "source": "osm_allstations"
  },
  {
    "name": "Cng Station",
    "latitude": 32.193237,
    "longitude": 74.180238,
    "city": "Gujranwala",
    "state": "Punjab",
    "source": "osm_allstations"
  },
  {
    "name": "Cng Petrol Pump",
    "latitude": 23.026704,
    "longitude": 72.526047,
    "city": "",
    "state": "Gujarat",
    "source": "osm_allstations"
  },
  {
    "name": "Meher Cng",
    "latitude": 32.483707,
    "longitude": 74.510426,
    "city": "",
    "state": "Punjab",
    "source": "osm_allstations"
  },
  {
    "name": "Vario Cng",
    "latitude": 32.472718,
    "longitude": 74.550614,
    "city": "Sialkot",
    "state": "Punjab",
    "source": "osm_allstations"
  },
  {
    "name": "Cng Station",
    "latitude": 24.451531,
    "longitude": 89.679345,
    "city": "Sirajganj",
    "state": "West Bengal",
    "source": "osm_allstations"
  },
  {
    "name": "Cng Station",
    "latitude": 24.787783,
    "longitude": 89.389712,
    "city": "",
    "state": "West Bengal",
    "source": "osm_allstations"
  },
  {
    "name": "Adani Cng",
    "latitude": 22.379562,
    "longitude": 73.155117,
    "city": "",
    "state": "Gujarat",
    "source": "osm_allstations"
  },
  {
    "name": "Trimatrik Cng Filling Station",
    "latitude": 24.228638,
    "longitude": 89.960696,
    "city": "",
    "state": "Assam",
    "source": "osm_allstations"
  },
  {
    "name": "M/S Sabur & Co. Cng Station এম / এস সবুর এনড কোং সিএনজি সটেশন",
    "latitude": 24.302883,
    "longitude": 89.919285,
    "city": "",
    "state": "Assam",
    "source": "osm_allstations"
  },
  {
    "name": "Navana Cng Filling Station",
    "latitude": 24.332677,
    "longitude": 89.925322,
    "city": "",
    "state": "Assam",
    "source": "osm_allstations"
  },
  {
    "name": "Bhuyan & Haque Cng ভূঁইযা এনড হক সি এন জি",
    "latitude": 23.436771,
    "longitude": 91.152701,
    "city": "",
    "state": "Tripura",
    "source": "osm_allstations"
  },
  {
    "name": "River View Cng & Filling Station",
    "latitude": 23.424796,
    "longitude": 91.161076,
    "city": "",
    "state": "Tripura",
    "source": "osm_allstations"
  },
  {
    "name": "Nurul Islam Hazari Cng & Filling Station নুরুল ইসলাম হাজারী সিএনজি ও ফিলিং সটেশনে",
    "latitude": 23.416976,
    "longitude": 91.176679,
    "city": "",
    "state": "Tripura",
    "source": "osm_allstations"
  },
  {
    "name": "Advance Cng Filling Station এযাডভানস সি এন জি ফিলিং সটেশন",
    "latitude": 23.411264,
    "longitude": 91.202946,
    "city": "",
    "state": "Tripura",
    "source": "osm_allstations"
  },
  {
    "name": "Taj Cng Filling Station",
    "latitude": 23.404338,
    "longitude": 91.216366,
    "city": "",
    "state": "Tripura",
    "source": "osm_allstations"
  },
  {
    "name": "Miah Bazar Cng Filling Station মিযা বাজার সিএনজি ফিলিং সটেশনে",
    "latitude": 23.345391,
    "longitude": 91.26284,
    "city": "",
    "state": "Tripura",
    "source": "osm_allstations"
  },
  {
    "name": "Intraco Cng Refining ইনটরাকো সিএনজি বিশোধক",
    "latitude": 23.339783,
    "longitude": 91.266926,
    "city": "",
    "state": "Tripura",
    "source": "osm_allstations"
  },
  {
    "name": "Cheora Cng Filling Station Ltd",
    "latitude": 23.168624,
    "longitude": 91.321625,
    "city": "",
    "state": "Tripura",
    "source": "osm_allstations"
  },
  {
    "name": "Premier Fuel Filling And Cng Station পরিমিযার জবালানি ভরতি এবং সিএনজি সটেশন",
    "latitude": 23.101629,
    "longitude": 91.343593,
    "city": "",
    "state": "Tripura",
    "source": "osm_allstations"
  },
  {
    "name": "Cng",
    "latitude": 23.03342,
    "longitude": 91.366051,
    "city": "",
    "state": "Tripura",
    "source": "osm_allstations"
  },
  {
    "name": "Prime Cng Station পরাইম সিএনজি সটেশন",
    "latitude": 23.025313,
    "longitude": 91.365747,
    "city": "",
    "state": "Tripura",
    "source": "osm_allstations"
  },
  {
    "name": "Hazi Nazir Ahmed Cng Filling Station হাজী নাজির আহমেদ সিএনজি ফিলিং সটেশনে",
    "latitude": 23.006503,
    "longitude": 91.385538,
    "city": "",
    "state": "Tripura",
    "source": "osm_allstations"
  },
  {
    "name": "Star Line Cng Station",
    "latitude": 22.989426,
    "longitude": 91.408856,
    "city": "",
    "state": "Tripura",
    "source": "osm_allstations"
  },
  {
    "name": "Monwar Cng Station",
    "latitude": 24.895237,
    "longitude": 91.894473,
    "city": "Sylhet",
    "state": "Assam",
    "source": "osm_allstations"
  },
  {
    "name": "Sharif Cng Filling Station সরিফ সিএনজি ফিলিং ষটেশন",
    "latitude": 24.856536,
    "longitude": 89.350661,
    "city": "",
    "state": "West Bengal",
    "source": "osm_allstations"
  },
  {
    "name": "Mehera Cng Filling & Service Station",
    "latitude": 24.853122,
    "longitude": 89.34991,
    "city": "",
    "state": "West Bengal",
    "source": "osm_allstations"
  },
  {
    "name": "Autithi Cng Station অতিথি ফিলিং সটেশন",
    "latitude": 24.83474,
    "longitude": 89.347236,
    "city": "",
    "state": "West Bengal",
    "source": "osm_allstations"
  },
  {
    "name": "Ark Cng Station",
    "latitude": 24.803893,
    "longitude": 89.385046,
    "city": "Bogra",
    "state": "West Bengal",
    "source": "osm_allstations"
  },
  {
    "name": "Northern Automobiles Cng Refueling Station",
    "latitude": 24.802516,
    "longitude": 89.38633,
    "city": "",
    "state": "West Bengal",
    "source": "osm_allstations"
  },
  {
    "name": "Monjur Motors Cng Station মঞজুর মটরস সিএনজি সটেশন",
    "latitude": 24.791408,
    "longitude": 89.388595,
    "city": "Bogra",
    "state": "West Bengal",
    "source": "osm_allstations"
  },
  {
    "name": "Alif Cng Filling Station আলিফের সিএনজি ফিলিং সটেশনের",
    "latitude": 24.212576,
    "longitude": 89.579147,
    "city": "",
    "state": "West Bengal",
    "source": "osm_allstations"
  },
  {
    "name": "Abdul Hamid Cng Filling Station",
    "latitude": 24.169656,
    "longitude": 89.586564,
    "city": "",
    "state": "West Bengal",
    "source": "osm_allstations"
  },
  {
    "name": "Bondhu Cng Station পেটরোল পামপ",
    "latitude": 24.083091,
    "longitude": 89.600734,
    "city": "",
    "state": "West Bengal",
    "source": "osm_allstations"
  },
  {
    "name": "Semco Cng Filling Station সেমকো সিএনজি ফিলিং ষটেশন",
    "latitude": 24.818478,
    "longitude": 89.358987,
    "city": "",
    "state": "West Bengal",
    "source": "osm_allstations"
  },
  {
    "name": "Rb Cng Station বিআরবি সিএনজি সটেশন",
    "latitude": 24.072802,
    "longitude": 89.055178,
    "city": "",
    "state": "West Bengal",
    "source": "osm_allstations"
  },
  {
    "name": "Doyel Cng Filling Station",
    "latitude": 24.872332,
    "longitude": 89.352557,
    "city": "",
    "state": "West Bengal",
    "source": "osm_allstations"
  },
  {
    "name": "Nahar Cng",
    "latitude": 24.874768,
    "longitude": 89.351714,
    "city": "",
    "state": "West Bengal",
    "source": "osm_allstations"
  },
  {
    "name": "Bogra Cng Filling Station",
    "latitude": 24.882523,
    "longitude": 89.354949,
    "city": "",
    "state": "West Bengal",
    "source": "osm_allstations"
  },
  {
    "name": "Northern Cng, Petrol Pump উততরাঞচলীয সিএনজি, পেটরোল পামপ",
    "latitude": 24.893343,
    "longitude": 89.359944,
    "city": "",
    "state": "West Bengal",
    "source": "osm_allstations"
  },
  {
    "name": "Raja Cng Station রাজা সিএনজি ষটেশন",
    "latitude": 24.894666,
    "longitude": 89.359713,
    "city": "",
    "state": "West Bengal",
    "source": "osm_allstations"
  },
  {
    "name": "Shah Sultan Cng Auto Mobel",
    "latitude": 24.944632,
    "longitude": 89.346647,
    "city": "",
    "state": "West Bengal",
    "source": "osm_allstations"
  },
  {
    "name": "Hazi Mojnu Miah Cng Filling Station",
    "latitude": 24.86171,
    "longitude": 91.84913,
    "city": "Sylhet",
    "state": "Assam",
    "source": "osm_allstations"
  },
  {
    "name": "Cng/Petrol Station",
    "latitude": 24.820617,
    "longitude": 91.803499,
    "city": "Sylhet",
    "state": "Assam",
    "source": "osm_allstations"
  },
  {
    "name": "Shaistaganj Cng Co. Limited",
    "latitude": 24.279201,
    "longitude": 91.438059,
    "city": "Shaistaganj",
    "state": "Tripura",
    "source": "osm_allstations"
  },
  {
    "name": "G.S Brothers Cng Filling Station",
    "latitude": 24.280072,
    "longitude": 91.433726,
    "city": "Dhaka-sylhet hwy",
    "state": "Tripura",
    "source": "osm_allstations"
  },
  {
    "name": "Al-Amin Cng Station And Petrol Pump",
    "latitude": 24.190341,
    "longitude": 91.350338,
    "city": "Dhaka - Sylhet Hwy",
    "state": "Tripura",
    "source": "osm_allstations"
  },
  {
    "name": "Krc Filling & Cng",
    "latitude": 24.123697,
    "longitude": 90.409949,
    "city": "",
    "state": "Assam",
    "source": "osm_allstations"
  },
  {
    "name": "Purbasha Cng Station Ltd.",
    "latitude": 24.294365,
    "longitude": 90.389578,
    "city": "",
    "state": "Assam",
    "source": "osm_allstations"
  },
  {
    "name": "M/S Shahanur Sarker Cng And Filling Station",
    "latitude": 24.318934,
    "longitude": 90.381273,
    "city": "",
    "state": "Assam",
    "source": "osm_allstations"
  },
  {
    "name": "Urbi Cng Filling Station",
    "latitude": 24.386786,
    "longitude": 90.377518,
    "city": "",
    "state": "Assam",
    "source": "osm_allstations"
  },
  {
    "name": "Madani Cng Stations মাদানী সিএনজি সটেশন",
    "latitude": 24.584224,
    "longitude": 90.394828,
    "city": "",
    "state": "Assam",
    "source": "osm_allstations"
  },
  {
    "name": "Ajahar Cng Station",
    "latitude": 24.782604,
    "longitude": 90.344691,
    "city": "",
    "state": "Assam",
    "source": "osm_allstations"
  },
  {
    "name": "Gobindaganj Cng/Petrol Station",
    "latitude": 24.930522,
    "longitude": 91.680613,
    "city": "Sunamganj Sylhet Hwy",
    "state": "Assam",
    "source": "osm_allstations"
  },
  {
    "name": "Cng/Petrol Station",
    "latitude": 25.04444,
    "longitude": 91.389189,
    "city": "Sunamganj Sylhet Hwy",
    "state": "Meghalaya",
    "source": "osm_allstations"
  },
  {
    "name": "Sinthia Cng Refuelling And Conversion Centre.",
    "latitude": 25.058457,
    "longitude": 91.390259,
    "city": "Sunamganj-Sylhet Hwy",
    "state": "Meghalaya",
    "source": "osm_allstations"
  },
  {
    "name": "A.R. Khan Pathan Cng And Filling Station",
    "latitude": 24.872061,
    "longitude": 90.717465,
    "city": "",
    "state": "Assam",
    "source": "osm_allstations"
  },
  {
    "name": "Gafargaon - Bhaluka Cng Stand গফরগাঁও - ভালুকা সিএনজি সটযানড",
    "latitude": 24.456591,
    "longitude": 90.545245,
    "city": "",
    "state": "Assam",
    "source": "osm_allstations"
  },
  {
    "name": "Indian Oil Petrol & Cng Pump",
    "latitude": 10.068315,
    "longitude": 76.32123,
    "city": "",
    "state": "Kerala",
    "source": "osm_allstations"
  },
  {
    "name": "Nazir Cng Station",
    "latitude": 31.602512,
    "longitude": 74.235558,
    "city": "Lahore",
    "state": "Punjab",
    "source": "osm_allstations"
  },
  {
    "name": "Igl Cng Pump",
    "latitude": 28.597112,
    "longitude": 77.058786,
    "city": "Sector 5 Dwarka, New Delhi",
    "state": "Delhi",
    "source": "osm_allstations"
  },
  {
    "name": "Amrita Fuels Indianoil Petrol Pump And Cng Station",
    "latitude": 10.050351,
    "longitude": 76.294488,
    "city": "",
    "state": "Kerala",
    "source": "osm_allstations"
  },
  {
    "name": "Gail India Ltd. Cng Station",
    "latitude": 25.286496,
    "longitude": 82.968651,
    "city": "",
    "state": "Uttar Pradesh",
    "source": "osm_allstations"
  },
  {
    "name": "Cng Filling Station , Police Line",
    "latitude": 28.688845,
    "longitude": 77.10395,
    "city": "",
    "state": "Delhi",
    "source": "osm_allstations"
  },
  {
    "name": "Noorjahan Cng Filling Station",
    "latitude": 24.865634,
    "longitude": 92.02555,
    "city": "",
    "state": "Assam",
    "source": "osm_allstations"
  },
  {
    "name": "Indianoil Cng Gas Station",
    "latitude": 10.245512,
    "longitude": 76.370154,
    "city": "",
    "state": "Kerala",
    "source": "osm_allstations"
  },
  {
    "name": "Adani Cng Gas Station",
    "latitude": 28.399023,
    "longitude": 77.350323,
    "city": "",
    "state": "Haryana",
    "source": "osm_allstations"
  },
  {
    "name": "Ahmed Filling And Cng, Gas Station",
    "latitude": 24.270918,
    "longitude": 90.39576,
    "city": "",
    "state": "Assam",
    "source": "osm_allstations"
  },
  {
    "name": "Indian Oil Adani Cng Pvt Ltd",
    "latitude": 10.817346,
    "longitude": 76.809615,
    "city": "",
    "state": "Kerala",
    "source": "osm_allstations"
  },
  {
    "name": "Cng Pump Indapur",
    "latitude": 18.286095,
    "longitude": 73.245559,
    "city": "",
    "state": "Maharashtra",
    "source": "osm_allstations"
  },
  {
    "name": "Indraprastha Gas Limited",
    "latitude": 28.584878,
    "longitude": 77.260221,
    "city": "",
    "state": "Delhi",
    "source": "osm_allstations"
  },
  {
    "name": "Igl",
    "latitude": 28.672379,
    "longitude": 77.152943,
    "city": "",
    "state": "Delhi",
    "source": "osm_allstations"
  },
  {
    "name": "Igl",
    "latitude": 28.529386,
    "longitude": 77.272819,
    "city": "",
    "state": "Delhi",
    "source": "osm_allstations"
  },
  {
    "name": "Igl",
    "latitude": 28.641776,
    "longitude": 77.225972,
    "city": "",
    "state": "Delhi",
    "source": "osm_allstations"
  },
  {
    "name": "Igl",
    "latitude": 29.400173,
    "longitude": 77.700106,
    "city": "",
    "state": "Uttarakhand",
    "source": "osm_allstations"
  },
  {
    "name": "Igl",
    "latitude": 28.613825,
    "longitude": 77.610141,
    "city": "",
    "state": "Uttar Pradesh",
    "source": "osm_allstations"
  },
  {
    "name": "Igl",
    "latitude": 28.69056,
    "longitude": 77.485078,
    "city": "",
    "state": "Haryana",
    "source": "osm_allstations"
  },
  {
    "name": "Igl",
    "latitude": 28.537878,
    "longitude": 77.289798,
    "city": "",
    "state": "Delhi",
    "source": "osm_allstations"
  },
  {
    "name": "Igl",
    "latitude": 28.774554,
    "longitude": 77.065389,
    "city": "",
    "state": "Delhi",
    "source": "osm_allstations"
  },
  {
    "name": "Igl",
    "latitude": 28.837251,
    "longitude": 77.12884,
    "city": "",
    "state": "Delhi",
    "source": "osm_allstations"
  },
  {
    "name": "Igl",
    "latitude": 28.846348,
    "longitude": 77.126132,
    "city": "",
    "state": "Delhi",
    "source": "osm_allstations"
  },
  {
    "name": "Igl",
    "latitude": 28.690212,
    "longitude": 77.097476,
    "city": "",
    "state": "Delhi",
    "source": "osm_allstations"
  },
  {
    "name": "Igl",
    "latitude": 28.653653,
    "longitude": 77.088767,
    "city": "",
    "state": "Delhi",
    "source": "osm_allstations"
  },
  {
    "name": "Igl",
    "latitude": 28.580591,
    "longitude": 77.179592,
    "city": "",
    "state": "Delhi",
    "source": "osm_allstations"
  },
  {
    "name": "Indraprastha Gas Limited",
    "latitude": 28.747312,
    "longitude": 77.15074,
    "city": "",
    "state": "Delhi",
    "source": "osm_allstations"
  },
  {
    "name": "Singh Igl Filling Station",
    "latitude": 28.529208,
    "longitude": 77.584251,
    "city": "",
    "state": "Haryana",
    "source": "osm_allstations"
  },
  {
    "name": "Mahanagar Gas Limited",
    "latitude": 19.046782,
    "longitude": 72.878713,
    "city": "",
    "state": "Maharashtra",
    "source": "osm_allstations"
  },
  {
    "name": "CNG Station",
    "latitude": 28.525907,
    "longitude": 77.190382,
    "city": "",
    "state": "Delhi",
    "source": "osm_allstations"
  },
  {
    "name": "CNG Station",
    "latitude": 28.450267,
    "longitude": 77.039658,
    "city": "",
    "state": "Delhi",
    "source": "osm_allstations"
  },
  {
    "name": "CNG Station",
    "latitude": 28.456216,
    "longitude": 77.046656,
    "city": "",
    "state": "Delhi",
    "source": "osm_allstations"
  },
  {
    "name": "Indraprastha Gas",
    "latitude": 28.52089,
    "longitude": 77.294862,
    "city": "",
    "state": "Delhi",
    "source": "osm_allstations"
  },
  {
    "name": "Indraprastha Gas Limited",
    "latitude": 28.587339,
    "longitude": 77.235539,
    "city": "",
    "state": "Delhi",
    "source": "osm_allstations"
  },
  {
    "name": "CNG Station",
    "latitude": 28.722121,
    "longitude": 77.061657,
    "city": "New Delhi",
    "state": "Delhi",
    "source": "osm_allstations"
  }
]
