[
  {
    "id": "osm-way-539942460",
    "name": "A.R. Khan Pathan CNG and Filling Station",
    "latitude": 24.872061,
    "longitude": 90.717465,
    "city": "",
    "state": ""
  },
  {
    "id": "osm-way-536539052",
    "name": "ABM Jobayar CNG Filling Station এবিএম জোবায়ের সিএনজি ফিলিং স্টেশন",
    "latitude": 23.650827,
    "longitude": 90.466658,
    "city": "",
    "state": ""
  },
  {
    "id": "osm-node-12500515109",
    "name": "ABN Paget CNG Station, Gas station",
    "latitude": 23.778676,
    "longitude": 90.356957,
    "city": "",
    "state": ""
  },
  {
    "id": "osm-way-540938706",
    "name": "AHB CNG Filling Station",
    "latitude": 23.894127,
    "longitude": 90.670473,
    "city": "",
    "state": ""
  },
  {
    "id": "osm-node-2391087962",
    "name": "AL RAFAY CNG",
    "latitude": 31.583983,
    "longitude": 73.532229,
    "city": "",
    "state": ""
  },
  {
    "id": "osm-node-2666937444",
    "name": "AR Traders CNG",
    "latitude": 33.62273,
    "longitude": 73.120752,
    "city": "",
    "state": ""
  },
  {
    "id": "osm-node-3587497396",
    "name": "Aamir CNG",
    "latitude": 33.521114,
    "longitude": 71.48937,
    "city": "",
    "state": ""
  },
  {
    "id": "osm-node-4460012502",
    "name": "Abazai CNG",
    "latitude": 34.201063,
    "longitude": 71.571507,
    "city": "",
    "state": ""
  },
  {
    "id": "osm-node-6627097985",
    "name": "Abbasi CNG",
    "latitude": 33.655664,
    "longitude": 73.07165,
    "city": "",
    "state": ""
  },
  {
    "id": "osm-node-2680766973",
    "name": "Abbasi CNG Station",
    "latitude": 33.735541,
    "longitude": 73.170063,
    "city": "",
    "state": ""
  },
  {
    "id": "osm-way-530192401",
    "name": "Abdul Hamid CNG Filling Station",
    "latitude": 24.169656,
    "longitude": 89.586564,
    "city": "",
    "state": ""
  },
  {
    "id": "osm-node-3393656497",
    "name": "Adani CNG Gas Station",
    "latitude": 23.011445,
    "longitude": 72.586437,
    "city": "",
    "state": "",
    "operator": "Adani"
  },
  {
    "id": "osm-way-1257805796",
    "name": "Adani CNG Gas Station",
    "latitude": 28.399023,
    "longitude": 77.350323,
    "city": "",
    "state": "",
    "operator": "Adani"
  },
  {
    "id": "osm-way-840511410",
    "name": "Adani CNG Station",
    "latitude": 22.999159,
    "longitude": 72.603628,
    "city": "",
    "state": "",
    "operator": "Adani"
  },
  {
    "id": "osm-way-1267737990",
    "name": "Adani CNG Station",
    "latitude": 23.454226,
    "longitude": 87.471064,
    "city": "",
    "state": "",
    "operator": "Adani"
  },
  {
    "id": "osm-node-5487860398",
    "name": "Adani CNG station",
    "latitude": 28.400755,
    "longitude": 77.374226,
    "city": "",
    "state": "",
    "operator": "Adani"
  },
  {
    "id": "osm-node-13011946561",
    "name": "Adani Electricity Gol Mahal Substation",
    "latitude": 19.04772,
    "longitude": 72.820122,
    "city": "",
    "state": "",
    "operator": "Adani"
  },
  {
    "id": "osm-node-10864785163",
    "name": "Adani Gas",
    "latitude": 27.944461,
    "longitude": 77.348444,
    "city": "",
    "state": "",
    "operator": "Adani"
  },
  {
    "id": "osm-node-10864785167",
    "name": "Adani Gas",
    "latitude": 28.078343,
    "longitude": 77.343426,
    "city": "",
    "state": "",
    "operator": "Adani"
  },
  {
    "id": "osm-node-10864785189",
    "name": "Adani Gas",
    "latitude": 28.044347,
    "longitude": 77.342128,
    "city": "",
    "state": "",
    "operator": "Adani"
  },
  {
    "id": "osm-node-10864785200",
    "name": "Adani Gas",
    "latitude": 28.070323,
    "longitude": 77.343871,
    "city": "",
    "state": "",
    "operator": "Adani"
  },
  {
    "id": "osm-node-10864788102",
    "name": "Adani Gas",
    "latitude": 28.187041,
    "longitude": 77.313351,
    "city": "",
    "state": "",
    "operator": "Adani"
  },
  {
    "id": "osm-node-10864788103",
    "name": "Adani Gas",
    "latitude": 28.196423,
    "longitude": 77.310874,
    "city": "",
    "state": "",
    "operator": "Adani"
  },
  {
    "id": "osm-node-10864790309",
    "name": "Adani Gas",
    "latitude": 28.244158,
    "longitude": 77.28947,
    "city": "",
    "state": "",
    "operator": "Adani"
  },
  {
    "id": "osm-node-10864790315",
    "name": "Adani Gas",
    "latitude": 28.266092,
    "longitude": 77.287942,
    "city": "",
    "state": "",
    "operator": "Adani"
  },
  {
    "id": "osm-way-505211411",
    "name": "Adani cng",
    "latitude": 22.379562,
    "longitude": 73.155117,
    "city": "",
    "state": "",
    "operator": "Adani"
  },
  {
    "id": "osm-node-2500613699",
    "name": "Admore CNG",
    "latitude": 32.603444,
    "longitude": 74.136203,
    "city": "",
    "state": ""
  },
  {
    "id": "osm-way-527003448",
    "name": "Advance CNG Filling Station এ্যাডভান্স সি এন জি ফিলিং স্টেশন",
    "latitude": 23.411264,
    "longitude": 91.202946,
    "city": "",
    "state": ""
  },
  {
    "id": "osm-way-537349035",
    "name": "Aftab CNG Station",
    "latitude": 23.9036,
    "longitude": 90.399523,
    "city": "",
    "state": ""
  },
  {
    "id": "osm-node-6165707422",
    "name": "Agomon CNG & Filling Station আগমন সি এন জি এন্ড ফাইলিং ফীলিং স্টেশন",
    "latitude": 23.628695,
    "longitude": 90.601917,
    "city": "",
    "state": ""
  },
  {
    "id": "osm-way-1462513486",
    "name": "Ahmad CNG",
    "latitude": 24.655383,
    "longitude": 68.822868,
    "city": "",
    "state": ""
  },
  {
    "id": "osm-way-1314606211",
    "name": "Ahmed Filling And CNG, Gas station",
    "latitude": 24.270918,
    "longitude": 90.39576,
    "city": "",
    "state": ""
  },
  {
    "id": "osm-way-539140858",
    "name": "Ajahar CNG Station",
    "latitude": 24.782604,
    "longitude": 90.344691,
    "city": "",
    "state": ""
  },
  {
    "id": "osm-way-526144404",
    "name": "Ajmot Ali CNG Filing Station",
    "latitude": 24.089381,
    "longitude": 90.183931,
    "city": "",
    "state": ""
  },
  {
    "id": "osm-node-4985294221",
    "name": "Ak Cng",
    "latitude": 31.581007,
    "longitude": 74.381466,
    "city": "",
    "state": ""
  },
  {
    "id": "osm-node-12522655952",
    "name": "Akash CNG Filling Station, Gas station",
    "latitude": 23.922039,
    "longitude": 90.137917,
    "city": "",
    "state": ""
  },
  {
    "id": "osm-node-4389365225",
    "name": "Akazai CNG",
    "latitude": 34.072414,
    "longitude": 72.60973,
    "city": "",
    "state": ""
  },
  {
    "id": "osm-node-12570852428",
    "name": "Akij CNG Station Ltd., Gas station",
    "latitude": 23.84294,
    "longitude": 89.81107,
    "city": "",
    "state": ""
  },
  {
    "id": "osm-node-12198639493",
    "name": "Akiz CNG Station, Gas station",
    "latitude": 24.714865,
    "longitude": 90.4104,
    "city": "",
    "state": ""
  },
  {
    "id": "osm-node-2501946486",
    "name": "Al Ammar CNG",
    "latitude": 33.0003,
    "longitude": 73.665509,
    "city": "",
    "state": ""
  },
  {
    "id": "osm-node-2961569274",
    "name": "Al Rehmat CNG",
    "latitude": 32.291967,
    "longitude": 74.151259,
    "city": "",
    "state": ""
  },
  {
    "id": "osm-node-12118228075",
    "name": "Al-Hera CNG And Filling Station, Gas station",
    "latitude": 23.941684,
    "longitude": 90.383625,
    "city": "",
    "state": ""
  },
  {
    "id": "osm-node-12361535004",
    "name": "Al-Jalal CNG And LPG Pump",
    "latitude": 24.89614,
    "longitude": 91.904749,
    "city": "",
    "state": ""
  },
  {
    "id": "osm-node-3038926855",
    "name": "AlQuddus CNG",
    "latitude": 32.327623,
    "longitude": 74.141463,
    "city": "",
    "state": ""
  },
  {
    "id": "osm-way-537579145",
    "name": "Alam CNG",
    "latitude": 23.91748,
    "longitude": 90.394428,
    "city": "",
    "state": ""
  },
  {
    "id": "osm-node-5778772852",
    "name": "Aleya Kamal CNG Station",
    "latitude": 23.796063,
    "longitude": 90.264444,
    "city": "",
    "state": ""
  },
  {
    "id": "osm-node-12448312672",
    "name": "Alhaz Nobab Ali CNG and Filling Station, Gas station",
    "latitude": 24.765766,
    "longitude": 90.292101,
    "city": "",
    "state": ""
  },
  {
    "id": "osm-node-12452877575",
    "name": "Alhaz Nobab Ali CNG and Filling Station, Gas station",
    "latitude": 24.761816,
    "longitude": 90.266797,
    "city": "",
    "state": ""
  },
  {
    "id": "osm-way-530180901",
    "name": "Alif CNG Filling Station আলিফের সিএনজি ফিলিং স্টেশনের",
    "latitude": 24.212576,
    "longitude": 89.579147,
    "city": "",
    "state": ""
  },
  {
    "id": "osm-node-1673481685",
    "name": "Alipur CNG",
    "latitude": 33.643873,
    "longitude": 73.194212,
    "city": "",
    "state": ""
  },
  {
    "id": "osm-node-11934756700",
    "name": "All In One CNG Filling Station",
    "latitude": 23.758664,
    "longitude": 90.399124,
    "city": "",
    "state": ""
  },
  {
    "id": "osm-way-528105661",
    "name": "Almas CNG Filling Station আলমাস সিএনজি ফিলিং স্টেশনের",
    "latitude": 22.373193,
    "longitude": 91.77366,
    "city": "",
    "state": ""
  },
  {
    "id": "osm-node-6625458488",
    "name": "Alrehman CNG",
    "latitude": 34.125648,
    "longitude": 71.782969,
    "city": "",
    "state": ""
  },
  {
    "id": "osm-way-441163734",
    "name": "Alwaris CNG",
    "latitude": 33.965359,
    "longitude": 72.57665,
    "city": "",
    "state": ""
  },
  {
    "id": "osm-node-2913894078",
    "name": "Amir Shahzad CNG",
    "latitude": 31.53183,
    "longitude": 73.387211,
    "city": "",
    "state": ""
  },
  {
    "id": "osm-way-804215148",
    "name": "Amrita Fuels IndianOil petrol pump and CNG station",
    "latitude": 10.050351,
    "longitude": 76.294488,
    "city": "",
    "state": ""
  },
  {
    "id": "osm-node-12104124130",
    "name": "Anudeep CNG",
    "latitude": 23.897548,
    "longitude": 90.399403,
    "city": "",
    "state": ""
  },
  {
    "id": "osm-node-5244010222",
    "name": "Apna CNG",
    "latitude": 33.640793,
    "longitude": 73.04389,
    "city": "",
    "state": ""
  },
  {
    "id": "osm-node-13264848838",
    "name": "Ariya CNG Filling Station, Gas station",
    "latitude": 23.806675,
    "longitude": 90.371435,
    "city": "",
    "state": ""
  },
  {
    "id": "osm-node-11210934846",
    "name": "Ashoka CNG",
    "latitude": 18.385962,
    "longitude": 76.550967,
    "city": "",
    "state": ""
  },
  {
    "id": "osm-node-11210871972",
    "name": "Ashoka CNG Pump",
    "latitude": 18.376871,
    "longitude": 76.558271,
    "city": "",
    "state": ""
  },
  {
    "id": "osm-node-4389352386",
    "name": "Asim CNG",
    "latitude": 34.070811,
    "longitude": 72.611466,
    "city": "",
    "state": ""
  },
  {
    "id": "osm-node-6406327585",
    "name": "Asim CNG",
    "latitude": 34.037068,
    "longitude": 71.578796,
    "city": "",
    "state": ""
  },
  {
    "id": "osm-node-5117083049",
    "name": "Asuka Cng Station আসুকা সিএনজি পাম্প",
    "latitude": 24.08299,
    "longitude": 90.202752,
    "city": "",
    "state": ""
  },
  {
    "id": "osm-node-4460064893",
    "name": "Attock CNG",
    "latitude": 31.933933,
    "longitude": 74.229245,
    "city": "",
    "state": ""
  },
  {
    "id": "osm-node-4401151390",
    "name": "Attock Petrol & Cng station",
    "latitude": 33.613069,
    "longitude": 73.070741,
    "city": "",
    "state": ""
  },
  {
    "id": "osm-node-1668280625",
    "name": "Attock Petrol Pump",
    "latitude": 33.633332,
    "longitude": 73.13307,
    "city": "",
    "state": ""
  },
  {
    "id": "osm-way-529651667",
    "name": "Autithi CNG Station অতিথি ফিলিং স্টেশন",
    "latitude": 24.83474,
    "longitude": 89.347236,
    "city": "",
    "state": ""
  },
  {
    "id": "osm-way-946128398",
    "name": "Autofill CNG pump",
    "latitude": 34.009745,
    "longitude": 71.538733,
    "city": "",
    "state": ""
  },
  {
    "id": "osm-node-12291716009",
    "name": "Azad CNG Petro and Chemical Co., Gas station",
    "latitude": 23.907048,
    "longitude": 90.321594,
    "city": "",
    "state": ""
  },
  {
    "id": "osm-node-6406327586",
    "name": "Azeem CNG",
    "latitude": 34.034193,
    "longitude": 71.578387,
    "city": "",
    "state": ""
  },
  {
    "id": "osm-way-537581973",
    "name": "BAFS CNG Station",
    "latitude": 23.919151,
    "longitude": 90.392993,
    "city": "",
    "state": ""
  },
  {
    "id": "osm-way-540939822",
    "name": "BL CNG Pump",
    "latitude": 23.904169,
    "longitude": 90.685095,
    "city": "",
    "state": ""
  },
  {
    "id": "osm-node-1855463959",
    "name": "BPCL Fuel Pump",
    "latitude": 19.214938,
    "longitude": 72.977444,
    "city": "",
    "state": ""
  },
  {
    "id": "osm-node-12697889144",
    "name": "BPS CNG Filling Station",
    "latitude": 26.951767,
    "longitude": 75.761222,
    "city": "",
    "state": ""
  },
  {
    "id": "osm-way-553507650",
    "name": "Babor And Brothers CNG Parts, Dhaka - Chittagong Hwy, Mirsharai, Chittagong",
    "latitude": 22.755745,
    "longitude": 91.585742,
    "city": "",
    "state": ""
  },
  {
    "id": "osm-node-4506430790",
    "name": "Babuzai CNG",
    "latitude": 34.097601,
    "longitude": 71.609929,
    "city": "",
    "state": ""
  },
  {
    "id": "osm-node-2876124422",
    "name": "Badarpur Service Station",
    "latitude": 28.619637,
    "longitude": 77.341117,
    "city": "",
    "state": ""
  },
  {
    "id": "osm-node-10772464929",
    "name": "Bandhu CNG Autos, Naogaon",
    "latitude": 24.804255,
    "longitude": 88.958349,
    "city": "",
    "state": ""
  },
  {
    "id": "osm-node-12558784004",
    "name": "Barangaila CNG Station",
    "latitude": 23.85233,
    "longitude": 89.87204,
    "city": "",
    "state": "",
    "operator": "GAIL"
  },
  {
    "id": "osm-node-11166640838",
    "name": "Bay View CNG Filling Station, Fozdarhat opposite police fari, Salimpur, Chattogram",
    "latitude": 22.400626,
    "longitude": 91.757289,
    "city": "",
    "state": ""
  },
  {
    "id": "osm-node-4406583494",
    "name": "Best Eastern CNG Station",
    "latitude": 23.723722,
    "longitude": 90.429023,
    "city": "",
    "state": ""
  },
  {
    "id": "osm-node-5007552535",
    "name": "Bhara Koh CNG",
    "latitude": 33.74624,
    "longitude": 73.191776,
    "city": "",
    "state": ""
  },
  {
    "id": "osm-node-813571553",
    "name": "Bharat Petroleum",
    "latitude": 17.43979,
    "longitude": 78.508904,
    "city": "",
    "state": ""
  },
  {
    "id": "osm-node-2084482683",
    "name": "Bharat Petroleum",
    "latitude": 28.563247,
    "longitude": 77.264743,
    "city": "",
    "state": ""
  },
  {
    "id": "osm-node-3504368176",
    "name": "Bharat Petroleum",
    "latitude": 18.482702,
    "longitude": 73.826623,
    "city": "",
    "state": ""
  },
  {
    "id": "osm-node-6499756350",
    "name": "Bharat Petroleum",
    "latitude": 31.60096,
    "longitude": 76.17792,
    "city": "",
    "state": ""
  },
  {
    "id": "osm-node-10748918307",
    "name": "Bharat Petroleum",
    "latitude": 31.389969,
    "longitude": 76.344562,
    "city": "",
    "state": ""
  },
  {
    "id": "osm-node-11752969064",
    "name": "Bharat Petroleum",
    "latitude": 27.218283,
    "longitude": 78.099432,
    "city": "",
    "state": ""
  },
  {
    "id": "osm-way-262803648",
    "name": "Bharat Petroleum",
    "latitude": 18.639387,
    "longitude": 73.738335,
    "city": "",
    "state": ""
  },
  {
    "id": "osm-way-738104229",
    "name": "Bharat Petroleum",
    "latitude": 9.990348,
    "longitude": 76.271444,
    "city": "",
    "state": ""
  },
  {
    "id": "osm-way-1287042070",
    "name": "Bharat Petroleum",
    "latitude": 13.136912,
    "longitude": 77.56853,
    "city": "",
    "state": ""
  },
  {
    "id": "osm-way-1462808930",
    "name": "Bharat Petroleum",
    "latitude": 19.302918,
    "longitude": 74.170591,
    "city": "",
    "state": ""
  },
  {
    "id": "osm-way-1485786118",
    "name": "Bharat Petroleum",
    "latitude": 20.220063,
    "longitude": 79.018915,
    "city": "",
    "state": ""
  },
  {
    "id": "osm-node-4301915191",
    "name": "Bharat patrolium CNG",
    "latitude": 23.276323,
    "longitude": 72.443245,
    "city": "",
    "state": ""
  },
  {
    "id": "osm-node-4291987897",
    "name": "Bharat petroleum CNG",
    "latitude": 23.279637,
    "longitude": 72.440781,
    "city": "",
    "state": ""
  },
  {
    "id": "osm-node-11572154152",
    "name": "Bhatiyari CNG station, Bhatiari - Hathazari Link Rd, Bhatiari, Chattogram",
    "latitude": 22.431714,
    "longitude": 91.820187,
    "city": "",
    "state": ""
  },
  {
    "id": "osm-node-4755927188",
    "name": "Bhatti CNG Station",
    "latitude": 30.225829,
    "longitude": 71.550115,
    "city": "",
    "state": ""
  },
  {
    "id": "osm-way-538212465",
    "name": "Bhawal CNG Station",
    "latitude": 24.060447,
    "longitude": 90.38834,
    "city": "",
    "state": ""
  },
  {
    "id": "osm-way-540938103",
    "name": "Bhuiyan CNG Station ভূঁইয়া সিএনজি স্টেশন",
    "latitude": 23.892345,
    "longitude": 90.664246,
    "city": "",
    "state": ""
  },
  {
    "id": "osm-way-526992948",
    "name": "Bhuyan & Haque CNG ভূঁইয়া এন্ড হক সি এন জি",
    "latitude": 23.436771,
    "longitude": 91.152701,
    "city": "",
    "state": ""
  },
  {
    "id": "osm-node-8038977585",
    "name": "Bilal CNG",
    "latitude": 33.603604,
    "longitude": 73.071731,
    "city": "",
    "state": ""
  },
  {
    "id": "osm-way-531183221",
    "name": "Bogra CNG Filling Station",
    "latitude": 24.882523,
    "longitude": 89.354949,
    "city": "",
    "state": ""
  },
  {
    "id": "osm-way-530198467",
    "name": "Bondhu CNG station পেট্রোল পাম্প",
    "latitude": 24.083091,
    "longitude": 89.600734,
    "city": "",
    "state": ""
  },
  {
    "id": "osm-way-920081423",
    "name": "Byco Petrol Pump And Tahir CNG Filling Station",
    "latitude": 33.816885,
    "longitude": 72.375416,
    "city": "",
    "state": ""
  },
  {
    "id": "osm-node-2502440907",
    "name": "Byco Petroleum",
    "latitude": 33.629975,
    "longitude": 72.94252,
    "city": "",
    "state": ""
  },
  {
    "id": "osm-node-3443346128",
    "name": "Byco petrol/cng",
    "latitude": 33.627483,
    "longitude": 73.019181,
    "city": "",
    "state": ""
  },
  {
    "id": "osm-node-2965713607",
    "name": "CNG",
    "latitude": 16.824676,
    "longitude": 96.171908,
    "city": "",
    "state": ""
  },
  {
    "id": "osm-node-2965774464",
    "name": "CNG",
    "latitude": 16.802599,
    "longitude": 96.185762,
    "city": "",
    "state": ""
  },
  {
    "id": "osm-node-3289553161",
    "name": "CNG",
    "latitude": 19.076587,
    "longitude": 72.877234,
    "city": "",
    "state": ""
  },
  {
    "id": "osm-node-4292071689",
    "name": "CNG",
    "latitude": 22.561969,
    "longitude": 71.723137,
    "city": "",
    "state": ""
  },
  {
    "id": "osm-node-4457370764",
    "name": "CNG",
    "latitude": 22.56408,
    "longitude": 71.717619,
    "city": "",
    "state": ""
  },
  {
    "id": "osm-node-7031750686",
    "name": "CNG",
    "latitude": 18.630737,
    "longitude": 73.742847,
    "city": "",
    "state": ""
  },
  {
    "id": "osm-way-242828248",
    "name": "CNG",
    "latitude": 34.016266,
    "longitude": 71.616538,
    "city": "",
    "state": ""
  },
  {
    "id": "osm-way-527420351",
    "name": "CNG",
    "latitude": 23.03342,
    "longitude": 91.366051,
    "city": "",
    "state": ""
  },
  {
    "id": "osm-way-527736284",
    "name": "CNG",
    "latitude": 22.641804,
    "longitude": 91.64426,
    "city": "",
    "state": ""
  },
  {
    "id": "osm-node-5156488796",
    "name": "CNG & BUS STATION",
    "latitude": 22.631451,
    "longitude": 91.800282,
    "city": "",
    "state": ""
  },
  {
    "id": "osm-node-2502792612",
    "name": "CNG - Gulbahar adda",
    "latitude": 34.015282,
    "longitude": 71.598859,
    "city": "",
    "state": ""
  },
  {
    "id": "osm-node-5291486626",
    "name": "CNG -kabir petrolum",
    "latitude": 21.838545,
    "longitude": 73.052773,
    "city": "",
    "state": ""
  },
  {
    "id": "osm-node-4326504193",
    "name": "CNG Adani",
    "latitude": 23.013519,
    "longitude": 72.564403,
    "city": "",
    "state": "",
    "operator": "Adani"
  },
  {
    "id": "osm-node-5261343721",
    "name": "CNG Bamanbore",
    "latitude": 22.42548,
    "longitude": 71.085541,
    "city": "",
    "state": ""
  },
  {
    "id": "osm-node-4483474713",
    "name": "CNG Bharat petroleum",
    "latitude": 23.040089,
    "longitude": 72.57813,
    "city": "",
    "state": ""
  },
  {
    "id": "osm-way-1035763371",
    "name": "CNG FILLING station , police line",
    "latitude": 28.688845,
    "longitude": 77.10395,
    "city": "",
    "state": ""
  },
  {
    "id": "osm-node-12409280738",
    "name": "CNG Filling Shop, Gas station",
    "latitude": 24.596628,
    "longitude": 90.025516,
    "city": "",
    "state": ""
  },
  {
    "id": "osm-node-3302171355",
    "name": "CNG Filling Station",
    "latitude": 23.731282,
    "longitude": 90.363198,
    "city": "",
    "state": ""
  },
  {
    "id": "osm-node-4395678732",
    "name": "CNG Filling Station",
    "latitude": 30.076407,
    "longitude": 71.185168,
    "city": "",
    "state": ""
  },
  {
    "id": "osm-node-4395687006",
    "name": "CNG Filling Station",
    "latitude": 30.10901,
    "longitude": 71.210599,
    "city": "",
    "state": ""
  },
  {
    "id": "osm-node-5506320571",
    "name": "CNG Filling Station",
    "latitude": 19.064348,
    "longitude": 72.859997,
    "city": "",
    "state": ""
  },
  {
    "id": "osm-node-9811243299",
    "name": "CNG Filling Station",
    "latitude": 22.370546,
    "longitude": 91.845723,
    "city": "",
    "state": ""
  },
  {
    "id": "osm-node-5123582846",
    "name": "CNG Filling Station সিএনজি ফিলিং স্টেশন",
    "latitude": 24.312459,
    "longitude": 89.922156,
    "city": "",
    "state": ""
  },
  {
    "id": "osm-way-532655594",
    "name": "CNG Filling station সিএনজি ফিলিং স্টেশনে",
    "latitude": 22.398595,
    "longitude": 91.869438,
    "city": "",
    "state": ""
  },
  {
    "id": "osm-node-723739793",
    "name": "CNG Fuel Station",
    "latitude": 28.595924,
    "longitude": 77.029008,
    "city": "",
    "state": "",
    "operator": "IGL"
  },
  {
    "id": "osm-node-4453247292",
    "name": "CNG Fuel Station",
    "latitude": 28.59064,
    "longitude": 77.03691,
    "city": "",
    "state": "",
    "operator": "IGL"
  },
  {
    "id": "osm-node-4561237387",
    "name": "CNG Fuel Station",
    "latitude": 23.750901,
    "longitude": 90.396007,
    "city": "",
    "state": ""
  },
  {
    "id": "osm-node-4456611890",
    "name": "CNG Hp petroleum",
    "latitude": 22.646179,
    "longitude": 72.206306,
    "city": "",
    "state": ""
  },
  {
    "id": "osm-node-4456348289",
    "name": "CNG Indian oil petrol pump",
    "latitude": 22.284186,
    "longitude": 70.769197,
    "city": "",
    "state": ""
  },
  {
    "id": "osm-node-4456349389",
    "name": "CNG Indian oil petrol pump",
    "latitude": 22.258577,
    "longitude": 70.704029,
    "city": "",
    "state": ""
  },
  {
    "id": "osm-node-4388452792",
    "name": "CNG MASHALLAH",
    "latitude": 25.377099,
    "longitude": 68.226085,
    "city": "",
    "state": ""
  },
  {
    "id": "osm-node-12596282122",
    "name": "CNG PUMP SHESHMA INDIAN OIL FILLING STATION",
    "latitude": 27.637419,
    "longitude": 75.211952,
    "city": "",
    "state": ""
  },
  {
    "id": "osm-node-2509372418",
    "name": "CNG Petrol",
    "latitude": 33.558486,
    "longitude": 73.092903,
    "city": "",
    "state": ""
  },
  {
    "id": "osm-node-4435502490",
    "name": "CNG Petrol pump",
    "latitude": 22.345042,
    "longitude": 73.202483,
    "city": "",
    "state": ""
  },
  {
    "id": "osm-node-4396969419",
    "name": "CNG Pump",
    "latitude": 28.558454,
    "longitude": 77.106734,
    "city": "",
    "state": ""
  },
  {
    "id": "osm-node-7271406385",
    "name": "CNG Pump",
    "latitude": 34.022613,
    "longitude": 71.564377,
    "city": "",
    "state": ""
  },
  {
    "id": "osm-way-526981176",
    "name": "CNG Pump সিএনজি পাম্প",
    "latitude": 23.459618,
    "longitude": 91.141415,
    "city": "",
    "state": ""
  },
  {
    "id": "osm-node-3280180803",
    "name": "CNG Statiom",
    "latitude": 34.000203,
    "longitude": 71.607494,
    "city": "",
    "state": ""
  },
  {
    "id": "osm-node-104694747",
    "name": "CNG Station",
    "latitude": 33.717309,
    "longitude": 73.083366,
    "city": "",
    "state": ""
  },
  {
    "id": "osm-node-255951322",
    "name": "CNG Station",
    "latitude": 33.607827,
    "longitude": 73.065423,
    "city": "",
    "state": ""
  },
  {
    "id": "osm-node-266492439",
    "name": "CNG Station",
    "latitude": 33.659401,
    "longitude": 73.05265,
    "city": "",
    "state": ""
  },
  {
    "id": "osm-node-297645624",
    "name": "CNG Station",
    "latitude": 33.668122,
    "longitude": 73.077492,
    "city": "",
    "state": ""
  },
  {
    "id": "osm-node-307674921",
    "name": "CNG Station",
    "latitude": 34.072538,
    "longitude": 71.59396,
    "city": "",
    "state": ""
  },
  {
    "id": "osm-node-1362714217",
    "name": "CNG Station",
    "latitude": 33.568196,
    "longitude": 73.104982,
    "city": "",
    "state": ""
  },
  {
    "id": "osm-node-1362714225",
    "name": "CNG Station",
    "latitude": 33.573506,
    "longitude": 73.105154,
    "city": "",
    "state": ""
  },
  {
    "id": "osm-node-1444730730",
    "name": "CNG Station",
    "latitude": 19.213694,
    "longitude": 72.837267,
    "city": "",
    "state": ""
  },
  {
    "id": "osm-node-1891103597",
    "name": "CNG Station",
    "latitude": 33.652781,
    "longitude": 73.081536,
    "city": "",
    "state": ""
  },
  {
    "id": "osm-node-1927270794",
    "name": "CNG Station",
    "latitude": 30.045805,
    "longitude": 70.653977,
    "city": "",
    "state": ""
  },
  {
    "id": "osm-node-1985888932",
    "name": "CNG Station",
    "latitude": 30.89107,
    "longitude": 75.80206,
    "city": "",
    "state": ""
  },
  {
    "id": "osm-node-1991976809",
    "name": "CNG Station",
    "latitude": 33.652021,
    "longitude": 73.09413,
    "city": "",
    "state": ""
  },
  {
    "id": "osm-node-2706730316",
    "name": "CNG Station",
    "latitude": 28.521758,
    "longitude": 77.166746,
    "city": "",
    "state": ""
  },
  {
    "id": "osm-node-3387447774",
    "name": "CNG Station",
    "latitude": 33.766679,
    "longitude": 72.357978,
    "city": "",
    "state": ""
  },
  {
    "id": "osm-node-3405289054",
    "name": "CNG Station",
    "latitude": 22.41874,
    "longitude": 87.325087,
    "city": "",
    "state": ""
  },
  {
    "id": "osm-node-4088214489",
    "name": "CNG Station",
    "latitude": 23.250805,
    "longitude": 90.842751,
    "city": "",
    "state": ""
  },
  {
    "id": "osm-node-4088219867",
    "name": "CNG Station",
    "latitude": 23.247843,
    "longitude": 90.946321,
    "city": "",
    "state": ""
  },
  {
    "id": "osm-node-4358631802",
    "name": "CNG Station",
    "latitude": 23.057951,
    "longitude": 72.643162,
    "city": "",
    "state": ""
  },
  {
    "id": "osm-node-4494125793",
    "name": "CNG Station",
    "latitude": 34.07961,
    "longitude": 71.596451,
    "city": "",
    "state": ""
  },
  {
    "id": "osm-node-4496769890",
    "name": "CNG Station",
    "latitude": 34.15306,
    "longitude": 71.73663,
    "city": "",
    "state": ""
  },
  {
    "id": "osm-node-4583646389",
    "name": "CNG Station",
    "latitude": 19.046782,
    "longitude": 72.878713,
    "city": "",
    "state": ""
  },
  {
    "id": "osm-node-4692006383",
    "name": "CNG Station",
    "latitude": 28.538545,
    "longitude": 77.13264,
    "city": "",
    "state": ""
  },
  {
    "id": "osm-node-5393262460",
    "name": "CNG Station",
    "latitude": 20.911708,
    "longitude": 70.362812,
    "city": "",
    "state": ""
  },
  {
    "id": "osm-node-5743508501",
    "name": "CNG Station",
    "latitude": 28.650427,
    "longitude": 77.268427,
    "city": "",
    "state": ""
  },
  {
    "id": "osm-node-5783668910",
    "name": "CNG Station",
    "latitude": 23.914396,
    "longitude": 90.258505,
    "city": "",
    "state": ""
  },
  {
    "id": "osm-node-6182717605",
    "name": "CNG Station",
    "latitude": 31.276938,
    "longitude": 72.321839,
    "city": "",
    "state": ""
  },
  {
    "id": "osm-node-6237628057",
    "name": "CNG Station",
    "latitude": 22.746128,
    "longitude": 75.893793,
    "city": "",
    "state": ""
  },
  {
    "id": "osm-node-6258194794",
    "name": "CNG Station",
    "latitude": 28.706513,
    "longitude": 77.185282,
    "city": "",
    "state": ""
  },
  {
    "id": "osm-node-6258194801",
    "name": "CNG Station",
    "latitude": 28.6855,
    "longitude": 77.148747,
    "city": "",
    "state": ""
  },
  {
    "id": "osm-node-6361838540",
    "name": "CNG Station",
    "latitude": 28.397792,
    "longitude": 76.932488,
    "city": "",
    "state": ""
  },
  {
    "id": "osm-node-6362607176",
    "name": "CNG Station",
    "latitude": 28.608699,
    "longitude": 77.252827,
    "city": "",
    "state": ""
  },
  {
    "id": "osm-node-6387101885",
    "name": "CNG Station",
    "latitude": 28.952208,
    "longitude": 77.094536,
    "city": "",
    "state": ""
  },
  {
    "id": "osm-node-6411571292",
    "name": "CNG Station",
    "latitude": 28.486936,
    "longitude": 77.187828,
    "city": "",
    "state": ""
  },
  {
    "id": "osm-node-6499063500",
    "name": "CNG Station",
    "latitude": 28.640187,
    "longitude": 77.256493,
    "city": "",
    "state": ""
  },
  {
    "id": "osm-node-6499067906",
    "name": "CNG Station",
    "latitude": 28.721062,
    "longitude": 77.217155,
    "city": "",
    "state": ""
  },
  {
    "id": "osm-node-6992015108",
    "name": "CNG Station",
    "latitude": 18.738315,
    "longitude": 73.857687,
    "city": "",
    "state": ""
  },
  {
    "id": "osm-node-8932878683",
    "name": "CNG Station",
    "latitude": 28.458053,
    "longitude": 77.047127,
    "city": "",
    "state": ""
  },
  {
    "id": "osm-node-9221656001",
    "name": "CNG Station",
    "latitude": 28.623044,
    "longitude": 77.311212,
    "city": "",
    "state": ""
  },
  {
    "id": "osm-node-13313437857",
    "name": "CNG Station",
    "latitude": 21.177865,
    "longitude": 79.125278,
    "city": "",
    "state": ""
  },
  {
    "id": "osm-way-40734170",
    "name": "CNG Station",
    "latitude": 18.985254,
    "longitude": 72.830855,
    "city": "",
    "state": ""
  },
  {
    "id": "osm-way-210788895",
    "name": "CNG Station",
    "latitude": 18.59839,
    "longitude": 73.82819,
    "city": "",
    "state": ""
  },
  {
    "id": "osm-way-220421976",
    "name": "CNG Station",
    "latitude": 19.08307,
    "longitude": 73.001215,
    "city": "",
    "state": ""
  },
  {
    "id": "osm-way-220926664",
    "name": "CNG Station",
    "latitude": 19.011981,
    "longitude": 73.035811,
    "city": "",
    "state": ""
  },
  {
    "id": "osm-way-260140440",
    "name": "CNG Station",
    "latitude": 33.643437,
    "longitude": 73.0308,
    "city": "",
    "state": ""
  },
  {
    "id": "osm-way-439377936",
    "name": "CNG Station",
    "latitude": 23.718398,
    "longitude": 90.420914,
    "city": "",
    "state": ""
  },
  {
    "id": "osm-way-441162122",
    "name": "CNG Station",
    "latitude": 24.787783,
    "longitude": 89.389712,
    "city": "",
    "state": ""
  },
  {
    "id": "osm-way-526129882",
    "name": "CNG Station",
    "latitude": 23.663149,
    "longitude": 90.563663,
    "city": "",
    "state": ""
  },
  {
    "id": "osm-way-526136536",
    "name": "CNG Station",
    "latitude": 23.652817,
    "longitude": 90.578897,
    "city": "",
    "state": ""
  },
  {
    "id": "osm-way-640257945",
    "name": "CNG Station",
    "latitude": 13.165368,
    "longitude": 77.62915,
    "city": "",
    "state": ""
  },
  {
    "id": "osm-way-770397418",
    "name": "CNG Station",
    "latitude": 28.587339,
    "longitude": 77.235539,
    "city": "",
    "state": ""
  },
  {
    "id": "osm-way-786574139",
    "name": "CNG Station",
    "latitude": 28.855781,
    "longitude": 77.124404,
    "city": "",
    "state": ""
  },
  {
    "id": "osm-way-786574142",
    "name": "CNG Station",
    "latitude": 28.853685,
    "longitude": 77.124776,
    "city": "",
    "state": ""
  },
  {
    "id": "osm-way-905418916",
    "name": "CNG Station",
    "latitude": 19.044543,
    "longitude": 72.916476,
    "city": "",
    "state": ""
  },
  {
    "id": "osm-way-1000908780",
    "name": "CNG Station",
    "latitude": 28.625809,
    "longitude": 77.314583,
    "city": "",
    "state": ""
  },
  {
    "id": "osm-way-1049476141",
    "name": "CNG Station",
    "latitude": 28.67306,
    "longitude": 77.283197,
    "city": "",
    "state": ""
  },
  {
    "id": "osm-way-1108933161",
    "name": "CNG Station",
    "latitude": 28.723486,
    "longitude": 77.165038,
    "city": "",
    "state": ""
  },
  {
    "id": "osm-way-1162012633",
    "name": "CNG Station",
    "latitude": 18.677292,
    "longitude": 73.859805,
    "city": "",
    "state": ""
  },
  {
    "id": "osm-way-1174709245",
    "name": "CNG Station",
    "latitude": 28.842084,
    "longitude": 77.101721,
    "city": "",
    "state": ""
  },
  {
    "id": "osm-way-1270574312",
    "name": "CNG Station",
    "latitude": 28.425844,
    "longitude": 77.025872,
    "city": "",
    "state": ""
  },
  {
    "id": "osm-way-1270574314",
    "name": "CNG Station",
    "latitude": 28.427369,
    "longitude": 77.023342,
    "city": "",
    "state": ""
  },
  {
    "id": "osm-way-1270574316",
    "name": "CNG Station",
    "latitude": 28.428086,
    "longitude": 77.021113,
    "city": "",
    "state": ""
  },
  {
    "id": "osm-way-1270574317",
    "name": "CNG Station",
    "latitude": 28.439833,
    "longitude": 77.00361,
    "city": "",
    "state": ""
  },
  {
    "id": "osm-way-1270574318",
    "name": "CNG Station",
    "latitude": 28.449793,
    "longitude": 76.99687,
    "city": "",
    "state": ""
  },
  {
    "id": "osm-way-1288044092",
    "name": "CNG Station",
    "latitude": 28.537558,
    "longitude": 77.153235,
    "city": "",
    "state": ""
  },
  {
    "id": "osm-way-1321903091",
    "name": "CNG Station",
    "latitude": 28.732903,
    "longitude": 77.558978,
    "city": "",
    "state": ""
  },
  {
    "id": "osm-way-1363598084",
    "name": "CNG Station",
    "latitude": 19.175557,
    "longitude": 72.864375,
    "city": "",
    "state": ""
  },
  {
    "id": "osm-node-5778437745",
    "name": "CNG Station সিএনজি স্টেশন",
    "latitude": 23.794696,
    "longitude": 90.29515,
    "city": "",
    "state": ""
  },
  {
    "id": "osm-way-526419123",
    "name": "CNG Station সিএনজি স্টেশন",
    "latitude": 23.528679,
    "longitude": 90.750687,
    "city": "",
    "state": ""
  },
  {
    "id": "osm-node-6746019988",
    "name": "CNG filling Pump",
    "latitude": 34.144538,
    "longitude": 73.269778,
    "city": "",
    "state": ""
  },
  {
    "id": "osm-node-4476395495",
    "name": "CNG gas only",
    "latitude": 23.210959,
    "longitude": 72.52955,
    "city": "",
    "state": ""
  },
  {
    "id": "osm-node-5286955825",
    "name": "CNG gas station",
    "latitude": 23.084673,
    "longitude": 72.686259,
    "city": "",
    "state": ""
  },
  {
    "id": "osm-node-4678057691",
    "name": "CNG gujarat",
    "latitude": 22.079716,
    "longitude": 73.160338,
    "city": "",
    "state": ""
  },
  {
    "id": "osm-node-11930783528",
    "name": "CNG indian oil",
    "latitude": 26.899998,
    "longitude": 81.333787,
    "city": "",
    "state": ""
  },
  {
    "id": "osm-node-4459942393",
    "name": "CNG petrol",
    "latitude": 31.156558,
    "longitude": 72.685906,
    "city": "",
    "state": ""
  },
  {
    "id": "osm-way-366648662",
    "name": "CNG petrol pump",
    "latitude": 23.026704,
    "longitude": 72.526047,
    "city": "",
    "state": ""
  },
  {
    "id": "osm-node-4456590193",
    "name": "CNG pump",
    "latitude": 22.574383,
    "longitude": 71.815088,
    "city": "",
    "state": ""
  },
  {
    "id": "osm-node-6842759386",
    "name": "CNG pump",
    "latitude": 22.379654,
    "longitude": 73.191663,
    "city": "",
    "state": ""
  },
  {
    "id": "osm-node-5725206321",
    "name": "CNG pump Bharat Petroleum",
    "latitude": 22.234306,
    "longitude": 73.188365,
    "city": "",
    "state": ""
  },
  {
    "id": "osm-node-4435495490",
    "name": "CNG pump Gspc",
    "latitude": 22.539844,
    "longitude": 72.928869,
    "city": "",
    "state": ""
  },
  {
    "id": "osm-node-4386975590",
    "name": "CNG pump near Kot beli",
    "latitude": 32.99713,
    "longitude": 70.626172,
    "city": "",
    "state": ""
  },
  {
    "id": "osm-node-307372551",
    "name": "CNG station",
    "latitude": 34.006649,
    "longitude": 71.616518,
    "city": "",
    "state": ""
  },
  {
    "id": "osm-node-2502792589",
    "name": "CNG station",
    "latitude": 34.015059,
    "longitude": 71.574942,
    "city": "",
    "state": ""
  },
  {
    "id": "osm-node-4294642592",
    "name": "CNG station  Mother",
    "latitude": 23.568588,
    "longitude": 72.35461,
    "city": "",
    "state": ""
  },
  {
    "id": "osm-node-12172094964",
    "name": "CNG station Bhaluka to Broad BazarAnd Burina",
    "latitude": 24.400292,
    "longitude": 90.38591,
    "city": "",
    "state": ""
  },
  {
    "id": "osm-node-5291854424",
    "name": "CNG stattion",
    "latitude": 22.935932,
    "longitude": 72.49878,
    "city": "",
    "state": ""
  },
  {
    "id": "osm-node-5371880354",
    "name": "Caajco CNG",
    "latitude": 34.123649,
    "longitude": 72.477603,
    "city": "",
    "state": ""
  },
  {
    "id": "osm-node-98166308",
    "name": "Caltex Filling Station",
    "latitude": 33.58467,
    "longitude": 73.094404,
    "city": "",
    "state": ""
  },
  {
    "id": "osm-node-4290844490",
    "name": "Capital CNG",
    "latitude": 33.994352,
    "longitude": 71.559081,
    "city": "",
    "state": ""
  },
  {
    "id": "osm-node-6499636916",
    "name": "Chaudhary Fuel Point",
    "latitude": 31.350737,
    "longitude": 76.387524,
    "city": "",
    "state": ""
  },
  {
    "id": "osm-way-527238067",
    "name": "Cheora CNG Filling Station Ltd",
    "latitude": 23.168624,
    "longitude": 91.321625,
    "city": "",
    "state": ""
  },
  {
    "id": "osm-node-5146617816",
    "name": "Chetona CNG Bogra Ltd চেতনা সিএনজি বগুড়া লিমিটেড",
    "latitude": 24.799928,
    "longitude": 89.386667,
    "city": "",
    "state": ""
  },
  {
    "id": "osm-way-236178680",
    "name": "Chikhali CNG Pump",
    "latitude": 18.664245,
    "longitude": 73.826683,
    "city": "",
    "state": "",
    "operator": "MNGL"
  },
  {
    "id": "osm-node-4298765123",
    "name": "Chinar CNG Station",
    "latitude": 32.565309,
    "longitude": 71.546381,
    "city": "",
    "state": ""
  },
  {
    "id": "osm-way-527498610",
    "name": "Choloman CNG Filling Station, Dhaka - Chittagong Hwyy, Chittagong",
    "latitude": 22.830149,
    "longitude": 91.550051,
    "city": "",
    "state": ""
  },
  {
    "id": "osm-node-1466684135",
    "name": "Classic Auto Gas",
    "latitude": 12.930966,
    "longitude": 77.600462,
    "city": "",
    "state": ""
  },
  {
    "id": "osm-node-4358646485",
    "name": "Cng Petrol pump",
    "latitude": 23.052345,
    "longitude": 72.631946,
    "city": "",
    "state": ""
  },
  {
    "id": "osm-node-4945168222",
    "name": "Cng Vadodara",
    "latitude": 22.315289,
    "longitude": 73.164874,
    "city": "",
    "state": ""
  },
  {
    "id": "osm-node-5387295121",
    "name": "Cng and petrol pump",
    "latitude": 23.028945,
    "longitude": 72.673433,
    "city": "",
    "state": ""
  },
  {
    "id": "osm-node-4707863390",
    "name": "Cng petrol pump",
    "latitude": 21.298809,
    "longitude": 72.953897,
    "city": "",
    "state": ""
  },
  {
    "id": "osm-node-5698657522",
    "name": "Cng station",
    "latitude": 23.161916,
    "longitude": 72.588276,
    "city": "",
    "state": ""
  },
  {
    "id": "osm-node-3038926865",
    "name": "DIN CNG",
    "latitude": 32.340086,
    "longitude": 74.379694,
    "city": "",
    "state": ""
  },
  {
    "id": "osm-node-4490122193",
    "name": "Daud Zai CNG",
    "latitude": 34.10089,
    "longitude": 71.612167,
    "city": "",
    "state": ""
  },
  {
    "id": "osm-node-12354082635",
    "name": "Dewan CNG Station, Gas station",
    "latitude": 24.041212,
    "longitude": 90.249953,
    "city": "",
    "state": ""
  },
  {
    "id": "osm-node-12526185591",
    "name": "Dhaleshwari CNG And LPG Filling Station, Gas station",
    "latitude": 23.872135,
    "longitude": 90.008022,
    "city": "",
    "state": ""
  },
  {
    "id": "osm-node-12518155018",
    "name": "Dhamrai CNG Filling Station",
    "latitude": 23.908011,
    "longitude": 90.211969,
    "city": "",
    "state": ""
  },
  {
    "id": "osm-way-360266650",
    "name": "Dharmavat Petrol Pump",
    "latitude": 18.448715,
    "longitude": 73.904331,
    "city": "",
    "state": ""
  },
  {
    "id": "osm-node-3284137538",
    "name": "Diesel & petrol (No CNG)",
    "latitude": 33.673561,
    "longitude": 71.543707,
    "city": "",
    "state": ""
  },
  {
    "id": "osm-way-251616338",
    "name": "Diva CNG",
    "latitude": 33.540256,
    "longitude": 73.053969,
    "city": "",
    "state": ""
  },
  {
    "id": "osm-way-531182060",
    "name": "Doyel CNG Filling Station",
    "latitude": 24.872332,
    "longitude": 89.352557,
    "city": "",
    "state": ""
  },
  {
    "id": "osm-node-12318182741",
    "name": "Dubai CNG Refueling Station, Gas station",
    "latitude": 24.043379,
    "longitude": 90.23941,
    "city": "",
    "state": ""
  },
  {
    "id": "osm-node-3600653814",
    "name": "E. Nasservanji Petrol Pump",
    "latitude": 20.417342,
    "longitude": 72.838998,
    "city": "",
    "state": ""
  },
  {
    "id": "osm-node-6191741642",
    "name": "Elias Brothers Filling Station and CNG",
    "latitude": 22.531295,
    "longitude": 91.700134,
    "city": "",
    "state": ""
  },
  {
    "id": "osm-node-863163240",
    "name": "Energetic CNG",
    "latitude": 34.044556,
    "longitude": 72.432837,
    "city": "",
    "state": ""
  },
  {
    "id": "osm-way-537313243",
    "name": "Enviro CNG Filling Station Ltd.",
    "latitude": 23.885662,
    "longitude": 90.39995,
    "city": "",
    "state": ""
  },
  {
    "id": "osm-way-526422426",
    "name": "Essa Kha CNG Pump",
    "latitude": 23.530748,
    "longitude": 90.773876,
    "city": "",
    "state": ""
  },
  {
    "id": "osm-node-6499246497",
    "name": "Essar",
    "latitude": 29.306693,
    "longitude": 76.993431,
    "city": "",
    "state": ""
  },
  {
    "id": "osm-node-11774365339",
    "name": "Extra Gas",
    "latitude": 17.394349,
    "longitude": 78.470062,
    "city": "",
    "state": ""
  },
  {
    "id": "osm-node-12520453882",
    "name": "F2F CNG Filling Station, Gas station",
    "latitude": 23.907921,
    "longitude": 90.221168,
    "city": "",
    "state": ""
  },
  {
    "id": "osm-node-4925249508",
    "name": "Fahad CNG",
    "latitude": 33.96656,
    "longitude": 71.534464,
    "city": "",
    "state": ""
  },
  {
    "id": "osm-way-243919527",
    "name": "Farqadaan CNG",
    "latitude": 32.199526,
    "longitude": 73.031665,
    "city": "",
    "state": ""
  },
  {
    "id": "osm-node-11575746561",
    "name": "Fast Fill CNG & LPG Filling Corner, BRTC Bus Depot, Rangamati-Khagrachhari Rd, Chattogram",
    "latitude": 22.416173,
    "longitude": 91.819372,
    "city": "",
    "state": ""
  },
  {
    "id": "osm-node-2323865425",
    "name": "Fossil CNG Filling Station",
    "latitude": 22.368478,
    "longitude": 91.828241,
    "city": "",
    "state": ""
  },
  {
    "id": "osm-node-4634235852",
    "name": "Four Star CNG Refueling Station",
    "latitude": 22.337182,
    "longitude": 91.821982,
    "city": "",
    "state": ""
  },
  {
    "id": "osm-way-273254233",
    "name": "Friend CNG",
    "latitude": 33.999605,
    "longitude": 71.494486,
    "city": "",
    "state": ""
  },
  {
    "id": "osm-node-12500504944",
    "name": "FtoF CNG Filling Station, Gas station",
    "latitude": 23.782887,
    "longitude": 90.340275,
    "city": "",
    "state": ""
  },
  {
    "id": "osm-way-1114994682",
    "name": "GAIL",
    "latitude": 13.154663,
    "longitude": 77.685089,
    "city": "",
    "state": "",
    "operator": "GAIL"
  },
  {
    "id": "osm-way-1120737746",
    "name": "GAIL",
    "latitude": 12.996147,
    "longitude": 77.519409,
    "city": "",
    "state": "",
    "operator": "GAIL"
  },
  {
    "id": "osm-way-1327758223",
    "name": "GAIL",
    "latitude": 12.889281,
    "longitude": 77.437879,
    "city": "",
    "state": "",
    "operator": "GAIL"
  },
  {
    "id": "osm-way-1351989866",
    "name": "GAIL CNG",
    "latitude": 12.873365,
    "longitude": 77.540406,
    "city": "",
    "state": "",
    "operator": "GAIL"
  },
  {
    "id": "osm-node-10180868466",
    "name": "GAIL CNG Filling Station",
    "latitude": 20.476489,
    "longitude": 85.820261,
    "city": "",
    "state": "",
    "operator": "GAIL"
  },
  {
    "id": "osm-node-496716531",
    "name": "GAIL CNG Station",
    "latitude": 29.0904,
    "longitude": 77.055726,
    "city": "",
    "state": "",
    "operator": "GAIL"
  },
  {
    "id": "osm-way-1210592626",
    "name": "GAIL CNG Station",
    "latitude": 12.947388,
    "longitude": 77.5797,
    "city": "",
    "state": "",
    "operator": "GAIL"
  },
  {
    "id": "osm-way-1239012965",
    "name": "GAIL CNG Station",
    "latitude": 13.057551,
    "longitude": 77.546644,
    "city": "",
    "state": "",
    "operator": "GAIL"
  },
  {
    "id": "osm-way-1328835914",
    "name": "GAIL CNG Station",
    "latitude": 12.871422,
    "longitude": 77.58346,
    "city": "",
    "state": "",
    "operator": "GAIL"
  },
  {
    "id": "osm-node-13605715799",
    "name": "GAIL GAS Station",
    "latitude": 20.444575,
    "longitude": 85.945404,
    "city": "",
    "state": "",
    "operator": "GAIL"
  },
  {
    "id": "osm-node-11817855862",
    "name": "GAIL Gas",
    "latitude": 28.940541,
    "longitude": 77.774445,
    "city": "",
    "state": "",
    "operator": "GAIL"
  },
  {
    "id": "osm-way-1284773488",
    "name": "GAIL Gas",
    "latitude": 13.040554,
    "longitude": 77.61859,
    "city": "",
    "state": "",
    "operator": "GAIL"
  },
  {
    "id": "osm-way-1410389161",
    "name": "GAIL Gas",
    "latitude": 13.010298,
    "longitude": 77.681117,
    "city": "",
    "state": "",
    "operator": "GAIL"
  },
  {
    "id": "osm-node-12069832603",
    "name": "GAIL Gas CNG Station",
    "latitude": 12.947796,
    "longitude": 74.812042,
    "city": "",
    "state": "",
    "operator": "GAIL"
  },
  {
    "id": "osm-way-1279894893",
    "name": "GAIL Gas CNG Station",
    "latitude": 13.153425,
    "longitude": 77.728555,
    "city": "",
    "state": "",
    "operator": "GAIL"
  },
  {
    "id": "osm-node-3255174021",
    "name": "GAS SYNDICATE CNG STATION",
    "latitude": 34.009585,
    "longitude": 72.029595,
    "city": "",
    "state": ""
  },
  {
    "id": "osm-way-540985499",
    "name": "Gafargaon - Bhaluka CNG Stand গফরগাঁও - ভালুকা সিএনজি স্ট্যান্ড",
    "latitude": 24.456591,
    "longitude": 90.545245,
    "city": "",
    "state": ""
  },
  {
    "id": "osm-node-5873841921",
    "name": "Gafargaon/Bhaluka CNG Station",
    "latitude": 24.416131,
    "longitude": 90.651582,
    "city": "",
    "state": ""
  },
  {
    "id": "osm-node-11688010839",
    "name": "Gaikwad CNG station",
    "latitude": 18.532322,
    "longitude": 73.931865,
    "city": "",
    "state": "",
    "operator": "MNGL"
  },
  {
    "id": "osm-node-5749135021",
    "name": "Gail Gas",
    "latitude": 22.386414,
    "longitude": 73.144671,
    "city": "",
    "state": "",
    "operator": "GAIL"
  },
  {
    "id": "osm-node-10856082920",
    "name": "Gail Gas",
    "latitude": 27.832805,
    "longitude": 77.417127,
    "city": "",
    "state": "",
    "operator": "GAIL"
  },
  {
    "id": "osm-node-12915151600",
    "name": "Gail Gas",
    "latitude": 13.031118,
    "longitude": 77.6302,
    "city": "",
    "state": "",
    "operator": "GAIL"
  },
  {
    "id": "osm-way-1324379093",
    "name": "Gail Gas",
    "latitude": 12.946892,
    "longitude": 77.746957,
    "city": "",
    "state": "",
    "operator": "GAIL"
  },
  {
    "id": "osm-node-12069797292",
    "name": "Gail Gas Limited",
    "latitude": 12.942025,
    "longitude": 74.815363,
    "city": "",
    "state": "",
    "operator": "GAIL"
  },
  {
    "id": "osm-way-954664792",
    "name": "Gail India Ltd. CNG Station",
    "latitude": 25.286496,
    "longitude": 82.968651,
    "city": "",
    "state": "",
    "operator": "GAIL"
  },
  {
    "id": "osm-way-1454788768",
    "name": "Gail gas CNG station",
    "latitude": 13.005028,
    "longitude": 77.685633,
    "city": "",
    "state": "",
    "operator": "GAIL"
  },
  {
    "id": "osm-way-284316359",
    "name": "Gasco CNG",
    "latitude": 33.227629,
    "longitude": 73.120987,
    "city": "",
    "state": ""
  },
  {
    "id": "osm-way-441163301",
    "name": "Ghazi CNG",
    "latitude": 33.960878,
    "longitude": 72.571636,
    "city": "",
    "state": ""
  },
  {
    "id": "osm-node-12752775087",
    "name": "Ghusia CNG",
    "latitude": 32.541382,
    "longitude": 74.065218,
    "city": "",
    "state": ""
  },
  {
    "id": "osm-node-12285541096",
    "name": "Go Gas",
    "latitude": 13.039379,
    "longitude": 77.596215,
    "city": "",
    "state": ""
  },
  {
    "id": "osm-node-12536067851",
    "name": "Good Luck CNG And LPG Auto Gas Station, Gas station",
    "latitude": 23.871087,
    "longitude": 89.984874,
    "city": "",
    "state": ""
  },
  {
    "id": "osm-node-3215705057",
    "name": "GreenLeaf Filling Station",
    "latitude": 22.942482,
    "longitude": 90.857597,
    "city": "",
    "state": ""
  },
  {
    "id": "osm-node-10790141203",
    "name": "Gujarat Gas CNG Station",
    "latitude": 22.843443,
    "longitude": 70.859745,
    "city": "",
    "state": "",
    "operator": "Gujarat Gas"
  },
  {
    "id": "osm-node-12592981557",
    "name": "Gujarat Gas CNG Station",
    "latitude": 21.750262,
    "longitude": 72.133216,
    "city": "",
    "state": "",
    "operator": "Gujarat Gas"
  },
  {
    "id": "osm-node-4424519496",
    "name": "Gujarat Gas CNG pump",
    "latitude": 22.714545,
    "longitude": 71.605548,
    "city": "",
    "state": "",
    "operator": "Gujarat Gas"
  },
  {
    "id": "osm-node-4424519692",
    "name": "Gujarat gas CNG",
    "latitude": 22.860433,
    "longitude": 71.797888,
    "city": "",
    "state": "",
    "operator": "Gujarat Gas"
  },
  {
    "id": "osm-node-9835462542",
    "name": "Gupta Petroleum",
    "latitude": 23.756966,
    "longitude": 86.339138,
    "city": "",
    "state": ""
  },
  {
    "id": "osm-way-538213518",
    "name": "H S Enterprise CNG Station",
    "latitude": 24.0778,
    "longitude": 90.394239,
    "city": "",
    "state": ""
  },
  {
    "id": "osm-way-1195003743",
    "name": "HCG",
    "latitude": 28.449699,
    "longitude": 77.091059,
    "city": "",
    "state": ""
  },
  {
    "id": "osm-node-1730577467",
    "name": "HCG CNG Station",
    "latitude": 28.431899,
    "longitude": 77.099737,
    "city": "",
    "state": ""
  },
  {
    "id": "osm-node-5561733975",
    "name": "HP",
    "latitude": 28.494525,
    "longitude": 77.303591,
    "city": "",
    "state": ""
  },
  {
    "id": "osm-node-9132850193",
    "name": "HP",
    "latitude": 19.12805,
    "longitude": 72.832203,
    "city": "",
    "state": ""
  },
  {
    "id": "osm-way-262803649",
    "name": "HP",
    "latitude": 18.601196,
    "longitude": 73.754348,
    "city": "",
    "state": ""
  },
  {
    "id": "osm-way-262803654",
    "name": "HP",
    "latitude": 18.628264,
    "longitude": 73.742393,
    "city": "",
    "state": ""
  },
  {
    "id": "osm-way-348203889",
    "name": "HP",
    "latitude": 28.602123,
    "longitude": 77.230004,
    "city": "",
    "state": ""
  },
  {
    "id": "osm-way-985090544",
    "name": "HP",
    "latitude": 28.585781,
    "longitude": 77.240414,
    "city": "",
    "state": ""
  },
  {
    "id": "osm-way-1191572656",
    "name": "HP",
    "latitude": 18.436462,
    "longitude": 73.142262,
    "city": "",
    "state": ""
  },
  {
    "id": "osm-node-6403726700",
    "name": "HP PETROL PUMP",
    "latitude": 28.675266,
    "longitude": 77.291325,
    "city": "",
    "state": ""
  },
  {
    "id": "osm-way-72547767",
    "name": "HP Petrol Station",
    "latitude": 18.960853,
    "longitude": 72.832141,
    "city": "",
    "state": ""
  },
  {
    "id": "osm-node-5781343044",
    "name": "Habib CNG Filling station",
    "latitude": 23.933942,
    "longitude": 90.267398,
    "city": "",
    "state": ""
  },
  {
    "id": "osm-node-3732372408",
    "name": "Hafiza CNG Filling Station",
    "latitude": 23.777474,
    "longitude": 90.362616,
    "city": "",
    "state": ""
  },
  {
    "id": "osm-node-3587505307",
    "name": "Hajj CNG",
    "latitude": 33.520395,
    "longitude": 71.500992,
    "city": "",
    "state": ""
  },
  {
    "id": "osm-way-534492782",
    "name": "Hamida CNG & LPG Filing Station, Hazi Lal Miah Sarkar Rd, Dhaka",
    "latitude": 23.697726,
    "longitude": 90.436544,
    "city": "",
    "state": ""
  },
  {
    "id": "osm-node-2734680252",
    "name": "Haq CNG",
    "latitude": 33.995149,
    "longitude": 72.927927,
    "city": "",
    "state": ""
  },
  {
    "id": "osm-node-2523260643",
    "name": "Hascol Petrol And Cng Station",
    "latitude": 27.325945,
    "longitude": 68.525888,
    "city": "",
    "state": ""
  },
  {
    "id": "osm-node-5017469513",
    "name": "Hascol Petrol CNG",
    "latitude": 32.716045,
    "longitude": 73.941573,
    "city": "",
    "state": ""
  },
  {
    "id": "osm-node-6627300586",
    "name": "Hashtnaghar CNG",
    "latitude": 34.135098,
    "longitude": 71.770303,
    "city": "",
    "state": ""
  },
  {
    "id": "osm-node-2486515582",
    "name": "Hassan Abdullah CNG",
    "latitude": 32.402839,
    "longitude": 74.122551,
    "city": "",
    "state": ""
  },
  {
    "id": "osm-node-6120888154",
    "name": "Hathazari CNG Fueling Station, Chattogram Rangamati Khagrachari Highway, Hathazari, Chattogram",
    "latitude": 22.496429,
    "longitude": 91.807655,
    "city": "",
    "state": ""
  },
  {
    "id": "osm-node-5776969913",
    "name": "Hazi Kofil Uddin CNG Filling Station",
    "latitude": 23.794205,
    "longitude": 90.279911,
    "city": "",
    "state": ""
  },
  {
    "id": "osm-way-527426849",
    "name": "Hazi Nazir Ahmed CNG Filling Station হাজী নাজির আহমেদ সিএনজি ফিলিং স্টেশনে",
    "latitude": 23.006503,
    "longitude": 91.385538,
    "city": "",
    "state": ""
  },
  {
    "id": "osm-node-13197687978",
    "name": "Hazrat Raypuri Cng Filling Station, Gas station",
    "latitude": 24.84527,
    "longitude": 92.160808,
    "city": "",
    "state": ""
  },
  {
    "id": "osm-way-528312071",
    "name": "Hazrat Tayyab Shah CNG Ltd সিএনজি স্টেশন",
    "latitude": 22.305055,
    "longitude": 91.861189,
    "city": "",
    "state": ""
  },
  {
    "id": "osm-node-12378567363",
    "name": "High Pressure CNG Station, Gas station",
    "latitude": 24.238359,
    "longitude": 89.9513,
    "city": "",
    "state": ""
  },
  {
    "id": "osm-node-11250349048",
    "name": "Highway CNG filling Station, Port Connecting Rd, Chattogram",
    "latitude": 22.334606,
    "longitude": 91.788678,
    "city": "",
    "state": ""
  },
  {
    "id": "osm-way-511680848",
    "name": "Humza CNG",
    "latitude": 30.209592,
    "longitude": 71.505097,
    "city": "",
    "state": ""
  },
  {
    "id": "osm-way-251987943",
    "name": "Hussain CNG",
    "latitude": 33.274839,
    "longitude": 73.288945,
    "city": "",
    "state": ""
  },
  {
    "id": "osm-node-6054489183",
    "name": "I.T.S CNG PETROL PUMP",
    "latitude": 23.670022,
    "longitude": 90.449552,
    "city": "",
    "state": ""
  },
  {
    "id": "osm-node-3704734414",
    "name": "IGL",
    "latitude": 28.572138,
    "longitude": 77.137474,
    "city": "",
    "state": "",
    "operator": "IGL"
  },
  {
    "id": "osm-node-4211294802",
    "name": "IGL",
    "latitude": 28.569962,
    "longitude": 77.196442,
    "city": "",
    "state": "",
    "operator": "IGL"
  },
  {
    "id": "osm-node-4472307090",
    "name": "IGL",
    "latitude": 28.672379,
    "longitude": 77.152943,
    "city": "",
    "state": "",
    "operator": "IGL"
  },
  {
    "id": "osm-node-4948444529",
    "name": "IGL",
    "latitude": 28.662831,
    "longitude": 77.129539,
    "city": "",
    "state": "",
    "operator": "IGL"
  },
  {
    "id": "osm-node-5134453892",
    "name": "IGL",
    "latitude": 28.553235,
    "longitude": 77.180472,
    "city": "",
    "state": "",
    "operator": "IGL"
  },
  {
    "id": "osm-node-5554423624",
    "name": "IGL",
    "latitude": 28.529386,
    "longitude": 77.272819,
    "city": "",
    "state": "",
    "operator": "IGL"
  },
  {
    "id": "osm-node-5578382617",
    "name": "IGL",
    "latitude": 28.547714,
    "longitude": 77.255391,
    "city": "",
    "state": "",
    "operator": "IGL"
  },
  {
    "id": "osm-node-5950267738",
    "name": "IGL",
    "latitude": 28.629276,
    "longitude": 77.321696,
    "city": "",
    "state": "",
    "operator": "IGL"
  },
  {
    "id": "osm-node-6498242797",
    "name": "IGL",
    "latitude": 28.596008,
    "longitude": 77.372681,
    "city": "",
    "state": "",
    "operator": "IGL"
  },
  {
    "id": "osm-node-11823656860",
    "name": "IGL",
    "latitude": 28.641776,
    "longitude": 77.225972,
    "city": "",
    "state": "",
    "operator": "IGL"
  },
  {
    "id": "osm-node-12258234256",
    "name": "IGL",
    "latitude": 29.400173,
    "longitude": 77.700106,
    "city": "",
    "state": "",
    "operator": "IGL"
  },
  {
    "id": "osm-node-12287514626",
    "name": "IGL",
    "latitude": 28.613825,
    "longitude": 77.610141,
    "city": "",
    "state": "",
    "operator": "IGL"
  },
  {
    "id": "osm-node-12595820603",
    "name": "IGL",
    "latitude": 28.69056,
    "longitude": 77.485078,
    "city": "",
    "state": "",
    "operator": "IGL"
  },
  {
    "id": "osm-node-13061199765",
    "name": "IGL",
    "latitude": 28.537878,
    "longitude": 77.289798,
    "city": "",
    "state": "",
    "operator": "IGL"
  },
  {
    "id": "osm-node-13072239983",
    "name": "IGL",
    "latitude": 28.629789,
    "longitude": 77.312399,
    "city": "",
    "state": "",
    "operator": "IGL"
  },
  {
    "id": "osm-node-13146442618",
    "name": "IGL",
    "latitude": 28.774554,
    "longitude": 77.065389,
    "city": "",
    "state": "",
    "operator": "IGL"
  },
  {
    "id": "osm-node-13146465017",
    "name": "IGL",
    "latitude": 28.837251,
    "longitude": 77.12884,
    "city": "",
    "state": "",
    "operator": "IGL"
  },
  {
    "id": "osm-node-13204264434",
    "name": "IGL",
    "latitude": 28.846348,
    "longitude": 77.126132,
    "city": "",
    "state": "",
    "operator": "IGL"
  },
  {
    "id": "osm-node-13594826095",
    "name": "IGL",
    "latitude": 28.690212,
    "longitude": 77.097476,
    "city": "",
    "state": "",
    "operator": "IGL"
  },
  {
    "id": "osm-node-13594852322",
    "name": "IGL",
    "latitude": 28.653653,
    "longitude": 77.088767,
    "city": "",
    "state": "",
    "operator": "IGL"
  },
  {
    "id": "osm-way-348215866",
    "name": "IGL",
    "latitude": 28.580591,
    "longitude": 77.179592,
    "city": "",
    "state": "",
    "operator": "IGL"
  },
  {
    "id": "osm-way-625482873",
    "name": "IGL",
    "latitude": 28.745614,
    "longitude": 77.151301,
    "city": "",
    "state": "",
    "operator": "IGL"
  },
  {
    "id": "osm-way-694559778",
    "name": "IGL",
    "latitude": 28.53093,
    "longitude": 77.232248,
    "city": "",
    "state": "",
    "operator": "IGL"
  },
  {
    "id": "osm-way-1274598060",
    "name": "IGL",
    "latitude": 28.406072,
    "longitude": 77.043148,
    "city": "",
    "state": "",
    "operator": "IGL"
  },
  {
    "id": "osm-way-1427643866",
    "name": "IGL",
    "latitude": 28.310444,
    "longitude": 77.066279,
    "city": "",
    "state": "",
    "operator": "IGL"
  },
  {
    "id": "osm-way-1460732495",
    "name": "IGL",
    "latitude": 28.666346,
    "longitude": 77.307588,
    "city": "",
    "state": "",
    "operator": "IGL"
  },
  {
    "id": "osm-node-1730936326",
    "name": "IGL CNG Station",
    "latitude": 28.667582,
    "longitude": 77.087513,
    "city": "",
    "state": "",
    "operator": "IGL"
  },
  {
    "id": "osm-way-1170518399",
    "name": "INDRAPRASTHA GAS LIMITED CNG STATION",
    "latitude": 28.685884,
    "longitude": 77.318648,
    "city": "",
    "state": ""
  },
  {
    "id": "osm-way-527189420",
    "name": "INTRACO CNG refining ইন্ট্রাকো সিএনজি বিশোধক",
    "latitude": 23.339783,
    "longitude": 91.266926,
    "city": "",
    "state": ""
  },
  {
    "id": "osm-way-1415395892",
    "name": "Indian Auto Gas",
    "latitude": 12.951109,
    "longitude": 77.745369,
    "city": "",
    "state": ""
  },
  {
    "id": "osm-node-271335830",
    "name": "Indian Oil",
    "latitude": 28.504343,
    "longitude": 77.171999,
    "city": "",
    "state": ""
  },
  {
    "id": "osm-node-498727742",
    "name": "Indian Oil",
    "latitude": 28.585527,
    "longitude": 77.309298,
    "city": "",
    "state": ""
  },
  {
    "id": "osm-node-7187209567",
    "name": "Indian Oil",
    "latitude": 28.564706,
    "longitude": 77.177629,
    "city": "",
    "state": ""
  },
  {
    "id": "osm-node-9835462551",
    "name": "Indian Oil",
    "latitude": 23.623407,
    "longitude": 86.18418,
    "city": "",
    "state": ""
  },
  {
    "id": "osm-node-10011904215",
    "name": "Indian Oil",
    "latitude": 22.620383,
    "longitude": 70.522228,
    "city": "",
    "state": ""
  },
  {
    "id": "osm-node-11300099854",
    "name": "Indian Oil",
    "latitude": 28.385759,
    "longitude": 79.435676,
    "city": "",
    "state": ""
  },
  {
    "id": "osm-node-11300099855",
    "name": "Indian Oil",
    "latitude": 28.375683,
    "longitude": 79.43336,
    "city": "",
    "state": ""
  },
  {
    "id": "osm-node-11610881340",
    "name": "Indian Oil",
    "latitude": 22.708857,
    "longitude": 77.912046,
    "city": "",
    "state": ""
  },
  {
    "id": "osm-node-12129479158",
    "name": "Indian Oil",
    "latitude": 22.867179,
    "longitude": 72.457682,
    "city": "",
    "state": ""
  },
  {
    "id": "osm-way-350079065",
    "name": "Indian Oil",
    "latitude": 28.570773,
    "longitude": 77.163403,
    "city": "",
    "state": ""
  },
  {
    "id": "osm-way-352513639",
    "name": "Indian Oil",
    "latitude": 28.56764,
    "longitude": 77.253928,
    "city": "",
    "state": ""
  },
  {
    "id": "osm-way-353148240",
    "name": "Indian Oil",
    "latitude": 19.102374,
    "longitude": 72.919607,
    "city": "",
    "state": ""
  },
  {
    "id": "osm-way-635317788",
    "name": "Indian Oil",
    "latitude": 12.94525,
    "longitude": 77.618989,
    "city": "",
    "state": ""
  },
  {
    "id": "osm-way-691897366",
    "name": "Indian Oil",
    "latitude": 10.808269,
    "longitude": 78.681486,
    "city": "",
    "state": ""
  },
  {
    "id": "osm-way-757974348",
    "name": "Indian Oil",
    "latitude": 9.927171,
    "longitude": 78.099966,
    "city": "",
    "state": ""
  },
  {
    "id": "osm-way-759984364",
    "name": "Indian Oil",
    "latitude": 9.985533,
    "longitude": 76.248041,
    "city": "",
    "state": ""
  },
  {
    "id": "osm-way-798300517",
    "name": "Indian Oil",
    "latitude": 10.069899,
    "longitude": 76.33074,
    "city": "",
    "state": ""
  },
  {
    "id": "osm-way-865695822",
    "name": "Indian Oil",
    "latitude": 26.872674,
    "longitude": 75.820837,
    "city": "",
    "state": ""
  },
  {
    "id": "osm-way-984707586",
    "name": "Indian Oil",
    "latitude": 28.632859,
    "longitude": 77.351153,
    "city": "",
    "state": ""
  },
  {
    "id": "osm-way-985533521",
    "name": "Indian Oil",
    "latitude": 28.624883,
    "longitude": 77.305303,
    "city": "",
    "state": ""
  },
  {
    "id": "osm-way-1163054069",
    "name": "Indian Oil",
    "latitude": 28.98893,
    "longitude": 79.399639,
    "city": "",
    "state": ""
  },
  {
    "id": "osm-way-1353654972",
    "name": "Indian Oil",
    "latitude": 12.904067,
    "longitude": 77.746729,
    "city": "",
    "state": ""
  },
  {
    "id": "osm-way-1447890159",
    "name": "Indian Oil Adani CNG Pvt Ltd",
    "latitude": 10.817346,
    "longitude": 76.809615,
    "city": "",
    "state": "",
    "operator": "Adani"
  },
  {
    "id": "osm-way-599131455",
    "name": "Indian Oil Petrol & CNG Pump",
    "latitude": 10.068315,
    "longitude": 76.32123,
    "city": "",
    "state": ""
  },
  {
    "id": "osm-way-623835181",
    "name": "Indian Oil Petrol Pump",
    "latitude": 9.669442,
    "longitude": 76.339168,
    "city": "",
    "state": ""
  },
  {
    "id": "osm-way-1248140368",
    "name": "Indian Oil Petrol Pump",
    "latitude": 24.899587,
    "longitude": 74.347347,
    "city": "",
    "state": ""
  },
  {
    "id": "osm-way-1280841985",
    "name": "Indian Oil Petrol Pump",
    "latitude": 29.329022,
    "longitude": 75.843046,
    "city": "",
    "state": ""
  },
  {
    "id": "osm-way-1344760159",
    "name": "Indian Oil Pump (CNG Available)",
    "latitude": 18.457775,
    "longitude": 73.829162,
    "city": "",
    "state": ""
  },
  {
    "id": "osm-node-5753318022",
    "name": "Indian oil CNG n Petrol",
    "latitude": 23.029281,
    "longitude": 72.475028,
    "city": "",
    "state": ""
  },
  {
    "id": "osm-node-8233700551",
    "name": "Indian petroleum",
    "latitude": 17.372483,
    "longitude": 78.507118,
    "city": "",
    "state": ""
  },
  {
    "id": "osm-way-1155451009",
    "name": "IndianOil CNG Gas Station",
    "latitude": 10.245512,
    "longitude": 76.370154,
    "city": "",
    "state": ""
  },
  {
    "id": "osm-node-1480729649",
    "name": "Indraprastha CNG gas station pump",
    "latitude": 28.575236,
    "longitude": 77.067756,
    "city": "",
    "state": ""
  },
  {
    "id": "osm-node-496457099",
    "name": "Indraprastha Gas Limited",
    "latitude": 28.584878,
    "longitude": 77.260221,
    "city": "",
    "state": "",
    "operator": "IGL"
  },
  {
    "id": "osm-node-496457118",
    "name": "Indraprastha Gas Limited",
    "latitude": 28.618616,
    "longitude": 77.249307,
    "city": "",
    "state": "",
    "operator": "IGL"
  },
  {
    "id": "osm-node-496489169",
    "name": "Indraprastha Gas Limited",
    "latitude": 28.681886,
    "longitude": 77.229799,
    "city": "",
    "state": ""
  },
  {
    "id": "osm-way-1368703824",
    "name": "Indraprastha Gas Limited",
    "latitude": 28.606621,
    "longitude": 77.14166,
    "city": "",
    "state": ""
  },
  {
    "id": "osm-way-1414269728",
    "name": "Indraprastha Gas Limited",
    "latitude": 28.686107,
    "longitude": 77.330811,
    "city": "",
    "state": ""
  },
  {
    "id": "osm-node-12596571169",
    "name": "Indraprastha Gas Limited CNG Station",
    "latitude": 28.661908,
    "longitude": 77.299923,
    "city": "",
    "state": ""
  },
  {
    "id": "osm-node-10763397028",
    "name": "Indraprastha Gas Limited CNG station",
    "latitude": 28.525984,
    "longitude": 77.37028,
    "city": "",
    "state": ""
  },
  {
    "id": "osm-node-2770372257",
    "name": "Indus Cng",
    "latitude": 33.881791,
    "longitude": 72.469961,
    "city": "",
    "state": ""
  },
  {
    "id": "osm-node-6102766021",
    "name": "Intraco CNG",
    "latitude": 22.618323,
    "longitude": 91.658779,
    "city": "",
    "state": ""
  },
  {
    "id": "osm-way-513825939",
    "name": "Intraco CNG",
    "latitude": 22.241108,
    "longitude": 91.79214,
    "city": "",
    "state": ""
  },
  {
    "id": "osm-node-2340298767",
    "name": "Intraco CNG Limited",
    "latitude": 22.342703,
    "longitude": 91.815813,
    "city": "",
    "state": ""
  },
  {
    "id": "osm-node-12880805877",
    "name": "Intraco CNG and LPG station, Gas station",
    "latitude": 24.782609,
    "longitude": 89.392933,
    "city": "",
    "state": ""
  },
  {
    "id": "osm-node-11430357152",
    "name": "Intraco CNG/LPG, M. A Aziz Rd, Chattogram",
    "latitude": 22.267521,
    "longitude": 91.787395,
    "city": "",
    "state": ""
  },
  {
    "id": "osm-node-1670684205",
    "name": "Irfan CNG",
    "latitude": 33.644038,
    "longitude": 73.16465,
    "city": "",
    "state": ""
  },
  {
    "id": "osm-node-12992217478",
    "name": "Ismail CNG Stations, Gym",
    "latitude": 24.911391,
    "longitude": 89.352706,
    "city": "",
    "state": ""
  },
  {
    "id": "osm-node-3038926856",
    "name": "Ittehad CNG",
    "latitude": 32.341036,
    "longitude": 74.352403,
    "city": "",
    "state": ""
  },
  {
    "id": "osm-node-3374353553",
    "name": "JMI CNG, Gojaria",
    "latitude": 23.572935,
    "longitude": 90.644103,
    "city": "",
    "state": ""
  },
  {
    "id": "osm-node-2304428251",
    "name": "Jabed Filling Station",
    "latitude": 24.902222,
    "longitude": 89.95002,
    "city": "",
    "state": ""
  },
  {
    "id": "osm-node-5146833081",
    "name": "Jahan CNG Filing Station",
    "latitude": 23.894236,
    "longitude": 90.372481,
    "city": "",
    "state": ""
  },
  {
    "id": "osm-node-11689935461",
    "name": "Jalalabad CNG Filling Station, Chittagong-Rangamati Road, Chattogram",
    "latitude": 22.532461,
    "longitude": 91.889732,
    "city": "",
    "state": ""
  },
  {
    "id": "osm-node-2324413599",
    "name": "Jalalabad CNG Filling Station, Pubali Banker Niche Oxyzen, Kazi Bhaban, Hathazari Rd, Chattogram",
    "latitude": 22.395009,
    "longitude": 91.820557,
    "city": "",
    "state": ""
  },
  {
    "id": "osm-node-12698162374",
    "name": "Jamalpur CNG station, CNG fitment center",
    "latitude": 24.916589,
    "longitude": 89.966299,
    "city": "",
    "state": ""
  },
  {
    "id": "osm-way-1013806867",
    "name": "Jamua Auto Centre CNG Refuelling Station",
    "latitude": 23.750058,
    "longitude": 90.402618,
    "city": "",
    "state": ""
  },
  {
    "id": "osm-node-5123808224",
    "name": "Jannat CNG Filling Station",
    "latitude": 23.464984,
    "longitude": 91.140164,
    "city": "",
    "state": ""
  },
  {
    "id": "osm-node-12328483938",
    "name": "Jyoti Cng Filling Station, Gas station",
    "latitude": 23.983117,
    "longitude": 90.261203,
    "city": "",
    "state": ""
  },
  {
    "id": "osm-way-527751697",
    "name": "K.U. Ahmed CNG",
    "latitude": 22.61125,
    "longitude": 91.662927,
    "city": "",
    "state": ""
  },
  {
    "id": "osm-node-1548376179",
    "name": "KORAL CNG",
    "latitude": 33.587094,
    "longitude": 73.147447,
    "city": "",
    "state": ""
  },
  {
    "id": "osm-way-538403966",
    "name": "KRC Filling & CNG",
    "latitude": 24.123697,
    "longitude": 90.409949,
    "city": "",
    "state": ""
  },
  {
    "id": "osm-node-4558120320",
    "name": "Kamal Brothers CNG",
    "latitude": 22.314274,
    "longitude": 91.85594,
    "city": "",
    "state": ""
  },
  {
    "id": "osm-way-857709971",
    "name": "Kargill Shaheed Riyasat Filling Station",
    "latitude": 29.264592,
    "longitude": 77.004395,
    "city": "",
    "state": ""
  },
  {
    "id": "osm-way-528309464",
    "name": "Karnaphuli CNG & Filling Station কর্ণফুলী সিএনজি ও ফিলিং স্টেশনে",
    "latitude": 22.309955,
    "longitude": 91.85734,
    "city": "",
    "state": ""
  },
  {
    "id": "osm-node-2332028532",
    "name": "Katalgonj CNG Station",
    "latitude": 22.363067,
    "longitude": 91.836011,
    "city": "",
    "state": ""
  },
  {
    "id": "osm-node-12143873201",
    "name": "Khan CNG Filling Station, Gas station",
    "latitude": 24.057425,
    "longitude": 90.38828,
    "city": "",
    "state": ""
  },
  {
    "id": "osm-node-2190939467",
    "name": "Khatak CNG",
    "latitude": 33.633202,
    "longitude": 73.036428,
    "city": "",
    "state": ""
  },
  {
    "id": "osm-node-4505773694",
    "name": "Khattak CNG",
    "latitude": 34.019487,
    "longitude": 71.655334,
    "city": "",
    "state": ""
  },
  {
    "id": "osm-node-3889036055",
    "name": "Khorshed Alam CNG Station",
    "latitude": 23.477095,
    "longitude": 91.081123,
    "city": "",
    "state": ""
  },
  {
    "id": "osm-node-2572541997",
    "name": "Khulshi LPG & CNG Filling Station by Omera Autogas, khulshi, Chattogram",
    "latitude": 22.361759,
    "longitude": 91.807874,
    "city": "",
    "state": ""
  },
  {
    "id": "osm-way-268660902",
    "name": "Khyber CNG Workshop",
    "latitude": 33.993654,
    "longitude": 72.921192,
    "city": "",
    "state": ""
  },
  {
    "id": "osm-node-13264869207",
    "name": "Kingshuk CNG Station, Gas station",
    "latitude": 23.80498,
    "longitude": 90.363899,
    "city": "",
    "state": ""
  },
  {
    "id": "osm-node-12846767558",
    "name": "Kodda CNG Stand, Car inspection station",
    "latitude": 24.394697,
    "longitude": 89.691175,
    "city": "",
    "state": ""
  },
  {
    "id": "osm-node-11254641443",
    "name": "Kolka LPG and CNG Station, Port Connecting Rd, Chattogram",
    "latitude": 22.352225,
    "longitude": 91.785485,
    "city": "",
    "state": ""
  },
  {
    "id": "osm-node-5123559129",
    "name": "Korean CNG Station",
    "latitude": 24.282842,
    "longitude": 89.917962,
    "city": "",
    "state": ""
  },
  {
    "id": "osm-way-529358287",
    "name": "Krishibid CNG, LPG & Gasoline Station",
    "latitude": 21.58836,
    "longitude": 92.064283,
    "city": "",
    "state": ""
  },
  {
    "id": "osm-way-652015869",
    "name": "LMD CNG",
    "latitude": 18.511266,
    "longitude": 73.77095,
    "city": "",
    "state": "",
    "operator": "MNGL"
  },
  {
    "id": "osm-node-11777892643",
    "name": "LS Energy CNG station, Jonopath Mor Bus Stop, Atish Deepankar Rd, Dhaka",
    "latitude": 23.712422,
    "longitude": 90.42816,
    "city": "",
    "state": ""
  },
  {
    "id": "osm-way-530751713",
    "name": "Laila CNG Filling Station",
    "latitude": 22.299707,
    "longitude": 91.78635,
    "city": "",
    "state": ""
  },
  {
    "id": "osm-node-12495686632",
    "name": "Lalon CNG And Filling Station Mosque",
    "latitude": 23.801181,
    "longitude": 90.262086,
    "city": "",
    "state": ""
  },
  {
    "id": "osm-way-1238321688",
    "name": "Landi Arbad",
    "latitude": 33.988088,
    "longitude": 71.55168,
    "city": "",
    "state": ""
  },
  {
    "id": "osm-way-193632131",
    "name": "Lotus Petrol Pump",
    "latitude": 19.142679,
    "longitude": 72.831771,
    "city": "",
    "state": ""
  },
  {
    "id": "osm-node-12299320814",
    "name": "M/S Anwar CNG Filling Station And Servicing Center",
    "latitude": 23.937169,
    "longitude": 90.285056,
    "city": "",
    "state": ""
  },
  {
    "id": "osm-node-6081460661",
    "name": "M/S Reaz CNG & Filling Station",
    "latitude": 24.721475,
    "longitude": 90.408605,
    "city": "",
    "state": ""
  },
  {
    "id": "osm-way-526945274",
    "name": "M/S Sabur & Co. CNG Station এম / এস সবুর এন্ড কোং সিএনজি স্টেশন",
    "latitude": 24.302883,
    "longitude": 89.919285,
    "city": "",
    "state": ""
  },
  {
    "id": "osm-way-538898222",
    "name": "M/S Shahanur Sarker CNG and Filling Station",
    "latitude": 24.318934,
    "longitude": 90.381273,
    "city": "",
    "state": ""
  },
  {
    "id": "osm-node-12336971035",
    "name": "M/S Titas Filing Station and CNG, Gas station",
    "latitude": 24.010064,
    "longitude": 90.327968,
    "city": "",
    "state": ""
  },
  {
    "id": "osm-node-12536076357",
    "name": "M/S. A. Rahman CNG And Filling Station, Gas station",
    "latitude": 23.871454,
    "longitude": 89.982459,
    "city": "",
    "state": ""
  },
  {
    "id": "osm-node-1255160775",
    "name": "M/s. Eureka-Nitol CNG Filling Station",
    "latitude": 23.777078,
    "longitude": 90.396021,
    "city": "",
    "state": ""
  },
  {
    "id": "osm-way-351557174",
    "name": "M/s. Shivan Auto Centre",
    "latitude": 28.621453,
    "longitude": 77.301602,
    "city": "",
    "state": ""
  },
  {
    "id": "osm-way-291763577",
    "name": "MGL CNG Station",
    "latitude": 19.118038,
    "longitude": 73.006688,
    "city": "",
    "state": "",
    "operator": "MGL"
  },
  {
    "id": "osm-node-4741560486",
    "name": "MM Bharat Petroleum",
    "latitude": 23.609766,
    "longitude": 72.36706,
    "city": "",
    "state": ""
  },
  {
    "id": "osm-way-616291149",
    "name": "MNGL",
    "latitude": 18.663307,
    "longitude": 73.789476,
    "city": "",
    "state": "",
    "operator": "MNGL"
  },
  {
    "id": "osm-way-580190219",
    "name": "MNGL CNG",
    "latitude": 18.585025,
    "longitude": 73.833023,
    "city": "",
    "state": "",
    "operator": "MNGL"
  },
  {
    "id": "osm-way-238842690",
    "name": "MNGL CNG Pump",
    "latitude": 18.534183,
    "longitude": 73.847651,
    "city": "",
    "state": "",
    "operator": "MNGL"
  },
  {
    "id": "osm-way-1389750590",
    "name": "MNGL CNG Pump",
    "latitude": 18.603147,
    "longitude": 73.746881,
    "city": "",
    "state": "",
    "operator": "MNGL"
  },
  {
    "id": "osm-node-12155234140",
    "name": "MOHA CNG Filling Station, Gas station",
    "latitude": 24.215069,
    "longitude": 90.414961,
    "city": "",
    "state": ""
  },
  {
    "id": "osm-node-11113326911",
    "name": "Maa Fatema CNG Filling Station, Fouzderhat Station, Dhaka - Chittagong Hwy, Salimpur, Chattogram",
    "latitude": 22.409141,
    "longitude": 91.754737,
    "city": "",
    "state": ""
  },
  {
    "id": "osm-way-534798729",
    "name": "Maas CNG Station",
    "latitude": 23.636629,
    "longitude": 90.495583,
    "city": "",
    "state": ""
  },
  {
    "id": "osm-way-538956978",
    "name": "Madani CNG Stations মাদানী সিএনজি স্টেশন",
    "latitude": 24.584224,
    "longitude": 90.394828,
    "city": "",
    "state": "",
    "operator": "Adani"
  },
  {
    "id": "osm-node-5239492925",
    "name": "Madina CNG",
    "latitude": 33.129509,
    "longitude": 71.142972,
    "city": "",
    "state": ""
  },
  {
    "id": "osm-node-3047312357",
    "name": "Madina Pak CNG",
    "latitude": 31.354414,
    "longitude": 72.867288,
    "city": "",
    "state": ""
  },
  {
    "id": "osm-node-1805764129",
    "name": "Maganhalli Basappa Petrol Station",
    "latitude": 14.441589,
    "longitude": 75.922763,
    "city": "",
    "state": ""
  },
  {
    "id": "osm-node-5128102778",
    "name": "Mahanagar CNG Station",
    "latitude": 23.693531,
    "longitude": 90.479984,
    "city": "",
    "state": ""
  },
  {
    "id": "osm-way-416021859",
    "name": "Mahanagar CNG station",
    "latitude": 19.034594,
    "longitude": 73.028686,
    "city": "",
    "state": ""
  },
  {
    "id": "osm-node-5601795153",
    "name": "Mahanagar Gas",
    "latitude": 19.063177,
    "longitude": 73.023107,
    "city": "",
    "state": ""
  },
  {
    "id": "osm-way-1431677172",
    "name": "Mahanagar Gas CNG Station",
    "latitude": 19.175428,
    "longitude": 73.002309,
    "city": "",
    "state": ""
  },
  {
    "id": "osm-way-1120517221",
    "name": "Mahanager Gas",
    "latitude": 19.289747,
    "longitude": 72.864608,
    "city": "",
    "state": ""
  },
  {
    "id": "osm-node-2505166270",
    "name": "Mahfooz CNG",
    "latitude": 32.948544,
    "longitude": 73.745076,
    "city": "",
    "state": ""
  },
  {
    "id": "osm-node-13200534015",
    "name": "Mahmud CNG Filling Station Mosque, Mosque",
    "latitude": 24.816407,
    "longitude": 92.155655,
    "city": "",
    "state": ""
  },
  {
    "id": "osm-way-261260403",
    "name": "Malook CNG",
    "latitude": 33.826658,
    "longitude": 72.716405,
    "city": "",
    "state": ""
  },
  {
    "id": "osm-node-12155186607",
    "name": "Maona CNG Filling Station., Gas station",
    "latitude": 24.246853,
    "longitude": 90.401306,
    "city": "",
    "state": ""
  },
  {
    "id": "osm-node-3060845134",
    "name": "Mario CNG",
    "latitude": 32.90438,
    "longitude": 73.735253,
    "city": "",
    "state": ""
  },
  {
    "id": "osm-node-4355315056",
    "name": "Medina CNG",
    "latitude": 33.963028,
    "longitude": 71.502267,
    "city": "",
    "state": ""
  },
  {
    "id": "osm-node-4319176101",
    "name": "Megar Group CNG Station",
    "latitude": 30.075331,
    "longitude": 71.312284,
    "city": "",
    "state": ""
  },
  {
    "id": "osm-node-5763605024",
    "name": "Mehar CNG Station",
    "latitude": 33.667243,
    "longitude": 72.995634,
    "city": "",
    "state": ""
  },
  {
    "id": "osm-way-366792537",
    "name": "Meher CNG",
    "latitude": 32.483707,
    "longitude": 74.510426,
    "city": "",
    "state": ""
  },
  {
    "id": "osm-way-529644003",
    "name": "Mehera CNG Filling & Service Station",
    "latitude": 24.853122,
    "longitude": 89.34991,
    "city": "",
    "state": ""
  },
  {
    "id": "osm-node-11740551753",
    "name": "Metro CNG Den & Food Safari, Gas station, South Jatrabari, Dhaka",
    "latitude": 23.707493,
    "longitude": 90.434971,
    "city": "",
    "state": ""
  },
  {
    "id": "osm-way-527189064",
    "name": "Miah Bazar CNG Filling Station মিয়া বাজার সিএনজি ফিলিং স্টেশনে",
    "latitude": 23.345391,
    "longitude": 91.26284,
    "city": "",
    "state": ""
  },
  {
    "id": "osm-node-3038926834",
    "name": "Midway CNG",
    "latitude": 33.634753,
    "longitude": 73.073607,
    "city": "",
    "state": ""
  },
  {
    "id": "osm-node-1673481789",
    "name": "Millat CNG",
    "latitude": 33.644767,
    "longitude": 73.169607,
    "city": "",
    "state": ""
  },
  {
    "id": "osm-node-2422528622",
    "name": "Millat CNG",
    "latitude": 33.461076,
    "longitude": 73.183812,
    "city": "",
    "state": ""
  },
  {
    "id": "osm-node-12330593435",
    "name": "Millennium CNG Filling Station, Gas station",
    "latitude": 24.022543,
    "longitude": 90.243956,
    "city": "",
    "state": ""
  },
  {
    "id": "osm-node-11185434185",
    "name": "Mir CNG Filling Station, Kattali, Near, Dhaka - Chittagong Hwy, Chattogram",
    "latitude": 22.371778,
    "longitude": 91.774983,
    "city": "",
    "state": ""
  },
  {
    "id": "osm-way-528310815",
    "name": "Mobil CNG Refuel Station",
    "latitude": 22.308194,
    "longitude": 91.859519,
    "city": "",
    "state": ""
  },
  {
    "id": "osm-node-12561071067",
    "name": "Modhumati CNG Ltd., Gas station",
    "latitude": 23.850039,
    "longitude": 89.863532,
    "city": "",
    "state": ""
  },
  {
    "id": "osm-way-526386847",
    "name": "Mohona CNG Filling Station মোহনা সিএনজি ফিলিং স্টেশনের",
    "latitude": 23.53392,
    "longitude": 90.723731,
    "city": "",
    "state": ""
  },
  {
    "id": "osm-node-12480282647",
    "name": "Mollah CNG And Filling Station, Gas station",
    "latitude": 23.794866,
    "longitude": 90.266871,
    "city": "",
    "state": ""
  },
  {
    "id": "osm-way-552815523",
    "name": "Mostafa CNG Filing Station, Muradpur, Chittagong",
    "latitude": 22.60063,
    "longitude": 91.669728,
    "city": "",
    "state": ""
  },
  {
    "id": "osm-node-6134476642",
    "name": "Mowlana CNG Pump, Agrabad Access Rd, Chattogram",
    "latitude": 22.329021,
    "longitude": 91.791513,
    "city": "",
    "state": ""
  },
  {
    "id": "osm-node-12468703140",
    "name": "Mymensingh CNG Auto-rickshaw Station",
    "latitude": 24.74761,
    "longitude": 90.421016,
    "city": "",
    "state": ""
  },
  {
    "id": "osm-node-5778456453",
    "name": "N R CNG Filling Station এন আর সিএনজি ফিলিং স্টেশন",
    "latitude": 23.793447,
    "longitude": 90.299672,
    "city": "",
    "state": ""
  },
  {
    "id": "osm-node-12518113895",
    "name": "NAndN CNG Refueling Station, Gas station",
    "latitude": 23.908247,
    "longitude": 90.214283,
    "city": "",
    "state": ""
  },
  {
    "id": "osm-node-12296273859",
    "name": "Nadi Filling And CNG Station, Gas station",
    "latitude": 23.930681,
    "longitude": 90.307989,
    "city": "",
    "state": ""
  },
  {
    "id": "osm-way-531182324",
    "name": "Nahar CNG",
    "latitude": 24.874768,
    "longitude": 89.351714,
    "city": "",
    "state": ""
  },
  {
    "id": "osm-node-12387958467",
    "name": "Nahian CNG Filling Station",
    "latitude": 24.177969,
    "longitude": 90.012013,
    "city": "",
    "state": ""
  },
  {
    "id": "osm-node-5566618420",
    "name": "Naresh Desai CNG pump",
    "latitude": 20.321529,
    "longitude": 72.902689,
    "city": "",
    "state": ""
  },
  {
    "id": "osm-node-5287407422",
    "name": "Nasim & Brothers CNG",
    "latitude": 33.122137,
    "longitude": 71.127687,
    "city": "",
    "state": ""
  },
  {
    "id": "osm-node-2242268589",
    "name": "National Highway Trucking Centre",
    "latitude": 19.067743,
    "longitude": 72.900328,
    "city": "",
    "state": ""
  },
  {
    "id": "osm-way-526949248",
    "name": "Navana CNG Filling Station",
    "latitude": 24.332677,
    "longitude": 89.925322,
    "city": "",
    "state": ""
  },
  {
    "id": "osm-way-536303474",
    "name": "Navana CNG Filling Station নাভানা সিএনজি ফিলিং স্টেশন",
    "latitude": 23.580305,
    "longitude": 90.503712,
    "city": "",
    "state": ""
  },
  {
    "id": "osm-node-11361264624",
    "name": "Navana CNG Limited-Chattogram Branch, SK. Mujib Road, Chattogram",
    "latitude": 22.321225,
    "longitude": 91.813042,
    "city": "",
    "state": ""
  },
  {
    "id": "osm-node-6215462734",
    "name": "Navana CNG Station",
    "latitude": 22.625911,
    "longitude": 91.654109,
    "city": "",
    "state": ""
  },
  {
    "id": "osm-way-657481993",
    "name": "Navana CNG Station",
    "latitude": 23.698727,
    "longitude": 90.532709,
    "city": "",
    "state": ""
  },
  {
    "id": "osm-node-12964260959",
    "name": "Navana CNG Station Bogura,Gas station",
    "latitude": 24.853756,
    "longitude": 89.372227,
    "city": "",
    "state": ""
  },
  {
    "id": "osm-node-12291733242",
    "name": "Navana CNG Station, Gas station",
    "latitude": 23.904865,
    "longitude": 90.323697,
    "city": "",
    "state": ""
  },
  {
    "id": "osm-node-12311755521",
    "name": "Navana CNG Station, Gas station",
    "latitude": 23.939565,
    "longitude": 90.270153,
    "city": "",
    "state": ""
  },
  {
    "id": "osm-node-12520441669",
    "name": "Navana Niribili CNG Pump, Gas station",
    "latitude": 23.916088,
    "longitude": 90.253175,
    "city": "",
    "state": ""
  },
  {
    "id": "osm-node-10723227033",
    "name": "Nazipur CNG Stand, Nazipur, Naogaon",
    "latitude": 25.040989,
    "longitude": 88.760424,
    "city": "",
    "state": ""
  },
  {
    "id": "osm-node-12390040575",
    "name": "Nitol CNG Filling Station, Gas station",
    "latitude": 24.241734,
    "longitude": 89.943018,
    "city": "",
    "state": ""
  },
  {
    "id": "osm-node-12339156543",
    "name": "Nitol Tata CNG Station, Gas station",
    "latitude": 24.011646,
    "longitude": 90.317529,
    "city": "",
    "state": ""
  },
  {
    "id": "osm-way-514091551",
    "name": "Noor-E-Modina CNG, A K Khan Moor, Chattogram",
    "latitude": 22.362693,
    "longitude": 91.781671,
    "city": "",
    "state": ""
  },
  {
    "id": "osm-way-1075158997",
    "name": "Noorjahan CNG Filling Station",
    "latitude": 24.865634,
    "longitude": 92.02555,
    "city": "",
    "state": ""
  },
  {
    "id": "osm-way-529863036",
    "name": "Northern Automobiles CNG Refueling Station",
    "latitude": 24.802516,
    "longitude": 89.38633,
    "city": "",
    "state": ""
  },
  {
    "id": "osm-way-531196653",
    "name": "Northern CNG, Petrol Pump উত্তরাঞ্চলীয় সিএনজি, পেট্রোল পাম্প",
    "latitude": 24.893343,
    "longitude": 89.359944,
    "city": "",
    "state": ""
  },
  {
    "id": "osm-way-527001614",
    "name": "Nurul Islam Hazari CNG & Filling Station নুরুল ইসলাম হাজারী সিএনজি ও ফিলিং স্টেশনে",
    "latitude": 23.416976,
    "longitude": 91.176679,
    "city": "",
    "state": ""
  },
  {
    "id": "osm-node-11482312812",
    "name": "Oli Ahmed CNG station, Chittagong - Kaptai Hwy, Chattogram",
    "latitude": 22.421979,
    "longitude": 91.866264,
    "city": "",
    "state": ""
  },
  {
    "id": "osm-node-299723132",
    "name": "PSO & CNG",
    "latitude": 33.995241,
    "longitude": 72.94251,
    "city": "",
    "state": ""
  },
  {
    "id": "osm-node-232641948",
    "name": "PSO Pump G-9 Markez",
    "latitude": 33.689396,
    "longitude": 73.033746,
    "city": "",
    "state": ""
  },
  {
    "id": "osm-node-4503681564",
    "name": "PSO Station & CNG",
    "latitude": 33.6605,
    "longitude": 73.063246,
    "city": "",
    "state": ""
  },
  {
    "id": "osm-node-2666930932",
    "name": "Pak CNG",
    "latitude": 33.608,
    "longitude": 73.109883,
    "city": "",
    "state": ""
  },
  {
    "id": "osm-node-12151284983",
    "name": "Palak CNG, Gas station",
    "latitude": 24.19643,
    "longitude": 90.424775,
    "city": "",
    "state": ""
  },
  {
    "id": "osm-node-277420266",
    "name": "Panchshila Service Station",
    "latitude": 28.561444,
    "longitude": 77.222783,
    "city": "",
    "state": ""
  },
  {
    "id": "osm-node-4925249495",
    "name": "Panther CNG",
    "latitude": 33.971091,
    "longitude": 71.5424,
    "city": "",
    "state": ""
  },
  {
    "id": "osm-node-2525193306",
    "name": "Pashabhai B Patel  Petrol n CNG",
    "latitude": 23.587755,
    "longitude": 72.377049,
    "city": "",
    "state": ""
  },
  {
    "id": "osm-node-4412725295",
    "name": "Petrol CNG pump",
    "latitude": 23.021968,
    "longitude": 72.650824,
    "city": "",
    "state": ""
  },
  {
    "id": "osm-way-631197946",
    "name": "Petronas",
    "latitude": 12.923889,
    "longitude": 77.640766,
    "city": "",
    "state": ""
  },
  {
    "id": "osm-node-4518518599",
    "name": "Petronas CNG Gas station",
    "latitude": 12.98575,
    "longitude": 77.479754,
    "city": "",
    "state": ""
  },
  {
    "id": "osm-way-527414137",
    "name": "Premier Fuel Filling and CNG Station প্রিমিয়ার জ্বালানি ভর্তি এবং সিএনজি স্টেশন",
    "latitude": 23.101629,
    "longitude": 91.343593,
    "city": "",
    "state": ""
  },
  {
    "id": "osm-way-527420989",
    "name": "Prime CNG Station প্রাইম সিএনজি স্টেশন",
    "latitude": 23.025313,
    "longitude": 91.365747,
    "city": "",
    "state": ""
  },
  {
    "id": "osm-way-538887586",
    "name": "Purbasha CNG Station Ltd.",
    "latitude": 24.294365,
    "longitude": 90.389578,
    "city": "",
    "state": ""
  },
  {
    "id": "osm-way-259083077",
    "name": "Qadir CNG",
    "latitude": 33.798797,
    "longitude": 72.710089,
    "city": "",
    "state": ""
  },
  {
    "id": "osm-node-2431017493",
    "name": "Qadir CNG Station",
    "latitude": 33.852841,
    "longitude": 72.735756,
    "city": "",
    "state": ""
  },
  {
    "id": "osm-node-12104117163",
    "name": "Quikfill CNG, Gas station",
    "latitude": 23.895691,
    "longitude": 90.400183,
    "city": "",
    "state": ""
  },
  {
    "id": "osm-way-530960687",
    "name": "RB CNG Station বিআরবি সিএনজি স্টেশন",
    "latitude": 24.072802,
    "longitude": 89.055178,
    "city": "",
    "state": ""
  },
  {
    "id": "osm-way-526451651",
    "name": "RNR CNG station",
    "latitude": 23.493353,
    "longitude": 90.987476,
    "city": "",
    "state": ""
  },
  {
    "id": "osm-way-526422692",
    "name": "Rabeya CNG Complex Ltd রাবেয়া সিএনজি কমপ্লেক্স লিমিটেড Gas Station",
    "latitude": 23.53097,
    "longitude": 90.777037,
    "city": "",
    "state": ""
  },
  {
    "id": "osm-node-11779691301",
    "name": "Rahman & Co. CNG Refuel Station, Chittagong-Coxs Bazar Hwy, Chattogram",
    "latitude": 22.303319,
    "longitude": 91.862795,
    "city": "",
    "state": ""
  },
  {
    "id": "osm-node-2502430285",
    "name": "Raja CNG",
    "latitude": 33.723494,
    "longitude": 72.806164,
    "city": "",
    "state": ""
  },
  {
    "id": "osm-node-317751582",
    "name": "Raja jee CNG",
    "latitude": 33.63766,
    "longitude": 73.092653,
    "city": "",
    "state": ""
  },
  {
    "id": "osm-node-12039815162",
    "name": "Rajarbag Service Station (Petrol Pump and CNG Station)",
    "latitude": 23.742406,
    "longitude": 90.417037,
    "city": "",
    "state": ""
  },
  {
    "id": "osm-node-11860905085",
    "name": "Rajgan CNG",
    "latitude": 33.506662,
    "longitude": 73.185453,
    "city": "",
    "state": ""
  },
  {
    "id": "osm-node-3047281712",
    "name": "Rammy CNG",
    "latitude": 31.180014,
    "longitude": 72.703009,
    "city": "",
    "state": ""
  },
  {
    "id": "osm-way-252770234",
    "name": "Rawat CNG",
    "latitude": 33.473884,
    "longitude": 73.19566,
    "city": "",
    "state": ""
  },
  {
    "id": "osm-way-526436508",
    "name": "Reliable CNG And Petrol Pump নির্ভরযোগ্য সিএনজি আর পেট্রোল পাম্প",
    "latitude": 23.516808,
    "longitude": 90.860596,
    "city": "",
    "state": ""
  },
  {
    "id": "osm-way-252120953",
    "name": "Riaz CNG",
    "latitude": 33.511166,
    "longitude": 73.178242,
    "city": "",
    "state": ""
  },
  {
    "id": "osm-node-12334434270",
    "name": "Riaz Filling Station And CNG",
    "latitude": 23.989032,
    "longitude": 90.359935,
    "city": "",
    "state": ""
  },
  {
    "id": "osm-node-6127550251",
    "name": "Rising CNG Refuelling",
    "latitude": 22.481446,
    "longitude": 91.720109,
    "city": "",
    "state": ""
  },
  {
    "id": "osm-way-526995135",
    "name": "River View CNG & Filling Station",
    "latitude": 23.424796,
    "longitude": 91.161076,
    "city": "",
    "state": ""
  },
  {
    "id": "osm-node-5116441540",
    "name": "Rojonigandha CNG & Fuling Station",
    "latitude": 23.678753,
    "longitude": 90.555057,
    "city": "",
    "state": ""
  },
  {
    "id": "osm-way-242790417",
    "name": "Rose CNG",
    "latitude": 33.623565,
    "longitude": 72.952319,
    "city": "",
    "state": ""
  },
  {
    "id": "osm-node-4445359693",
    "name": "Roshni CNG",
    "latitude": 31.8902,
    "longitude": 74.238466,
    "city": "",
    "state": ""
  },
  {
    "id": "osm-node-12999085128",
    "name": "Rumana Saif Enterprises, CNG fitment center",
    "latitude": 24.948015,
    "longitude": 89.347595,
    "city": "",
    "state": ""
  },
  {
    "id": "osm-node-12561092703",
    "name": "Rumi Filling And CNG Station, Gas station",
    "latitude": 23.849984,
    "longitude": 89.877776,
    "city": "",
    "state": ""
  },
  {
    "id": "osm-node-11782137590",
    "name": "S H Khan CNG Fuel Station, CDA Ave, Chattogram",
    "latitude": 22.350275,
    "longitude": 91.821342,
    "city": "",
    "state": ""
  },
  {
    "id": "osm-node-6274356312",
    "name": "S RAHMAN FILLING AND CNG STATION এস রহমান ফিলিং এন্ড সিএনজি স্টেশন",
    "latitude": 23.06165,
    "longitude": 91.361939,
    "city": "",
    "state": ""
  },
  {
    "id": "osm-node-1674214238",
    "name": "SHAN CNG",
    "latitude": 33.629315,
    "longitude": 73.109013,
    "city": "",
    "state": ""
  },
  {
    "id": "osm-node-9120487882",
    "name": "SK CNG Gas Station",
    "latitude": 19.149027,
    "longitude": 72.839974,
    "city": "",
    "state": ""
  },
  {
    "id": "osm-node-7065757926",
    "name": "SNS CNG Station haker pin এসএনএস সিএনজি স্টেশন কার পিন",
    "latitude": 24.423988,
    "longitude": 90.388153,
    "city": "",
    "state": ""
  },
  {
    "id": "osm-node-12141866131",
    "name": "SOMMER CNG And CONVERSION LTD., Gas station",
    "latitude": 24.007238,
    "longitude": 90.383827,
    "city": "",
    "state": ""
  },
  {
    "id": "osm-way-526080954",
    "name": "SS CNG & Re-Fuelling Center(Gas Station)",
    "latitude": 23.704007,
    "longitude": 90.525736,
    "city": "",
    "state": ""
  },
  {
    "id": "osm-way-1249161357",
    "name": "SUDARSHAN FILLING STATION",
    "latitude": 22.709314,
    "longitude": 77.896989,
    "city": "",
    "state": ""
  },
  {
    "id": "osm-way-1335317150",
    "name": "Sabarmati Gas",
    "latitude": 23.592692,
    "longitude": 72.330038,
    "city": "",
    "state": "",
    "operator": "Sabarmati"
  },
  {
    "id": "osm-node-7944287422",
    "name": "Sabarmati Railway Station",
    "latitude": 23.069675,
    "longitude": 72.586449,
    "city": "",
    "state": "",
    "operator": "Sabarmati"
  },
  {
    "id": "osm-way-540939149",
    "name": "Sachi Oni CNG Ltd",
    "latitude": 23.895195,
    "longitude": 90.675664,
    "city": "",
    "state": ""
  },
  {
    "id": "osm-node-2422469417",
    "name": "Sadat cng petrol",
    "latitude": 33.766994,
    "longitude": 72.72359,
    "city": "",
    "state": ""
  },
  {
    "id": "osm-node-4244809493",
    "name": "Saddat CNG",
    "latitude": 33.997373,
    "longitude": 73.068815,
    "city": "",
    "state": ""
  },
  {
    "id": "osm-way-1450047024",
    "name": "Saddharma CNG Gas Station",
    "latitude": 15.250734,
    "longitude": 76.360751,
    "city": "",
    "state": ""
  },
  {
    "id": "osm-node-9807021286",
    "name": "Safatullah CNG & Petrol Station",
    "latitude": 24.91362,
    "longitude": 91.822823,
    "city": "",
    "state": ""
  },
  {
    "id": "osm-node-3387437184",
    "name": "Safe way CNG",
    "latitude": 33.768648,
    "longitude": 72.362937,
    "city": "",
    "state": ""
  },
  {
    "id": "osm-way-538149023",
    "name": "Sagar Saikat CNG Filling Station সাগর সৈকত সিএনজি ফিলিং স্টেশনে",
    "latitude": 24.003302,
    "longitude": 90.382718,
    "city": "",
    "state": ""
  },
  {
    "id": "osm-node-6180227337",
    "name": "Sakura CNG Gas Station সাকুরা সিএনজি গ্যাস স্টেশন",
    "latitude": 23.478036,
    "longitude": 91.104597,
    "city": "",
    "state": ""
  },
  {
    "id": "osm-node-11380845133",
    "name": "Salim & Sons CNG Filling Station, Port Connecting Rd, Chattogram",
    "latitude": 22.318272,
    "longitude": 91.798502,
    "city": "",
    "state": ""
  },
  {
    "id": "osm-way-529335092",
    "name": "Samantha Mobile Cng Filling Station",
    "latitude": 21.427557,
    "longitude": 92.056436,
    "city": "",
    "state": ""
  },
  {
    "id": "osm-node-5123603658",
    "name": "Samko CNG",
    "latitude": 24.330662,
    "longitude": 89.924651,
    "city": "",
    "state": ""
  },
  {
    "id": "osm-node-5778830880",
    "name": "Samvar CNG & Filling Station",
    "latitude": 23.94482,
    "longitude": 90.272465,
    "city": "",
    "state": ""
  },
  {
    "id": "osm-node-8424732453",
    "name": "Sarder CNG",
    "latitude": 23.587304,
    "longitude": 90.634388,
    "city": "",
    "state": ""
  },
  {
    "id": "osm-node-8012341131",
    "name": "Sarpanch Petro Service",
    "latitude": 30.50516,
    "longitude": 74.858002,
    "city": "",
    "state": ""
  },
  {
    "id": "osm-node-11264414474",
    "name": "Satata CNG /LPG Motors, Nayabazar BiswaRoad, PC Road, Chattogram",
    "latitude": 22.343337,
    "longitude": 91.787909,
    "city": "",
    "state": ""
  },
  {
    "id": "osm-way-542007832",
    "name": "Savar CNG Filling Station সাভার সিএনজি ফিলিং স্টেশনের",
    "latitude": 23.827024,
    "longitude": 90.258641,
    "city": "",
    "state": ""
  },