[
  {
    "id": "cng-24366614",
    "name": "Jet Fuel Supplier Reliance Industries Limited",
    "latitude": 21.186824,
    "longitude": 81.737322,
    "city": "raipur",
    "state": "Chhattisgarh",
    "source": "osm",
    "address": "Ramchandi,, raipur, Chhattisgarh"
  },
  {
    "id": "cng-3e6bf1e9",
    "name": "E. Nasservanji Petrol Pump",
    "latitude": 20.417342,
    "longitude": 72.838998,
    "city": "",
    "state": "Daman and Diu",
    "source": "osm",
    "address": "Daman and Diu"
  },
  {
    "id": "cng-9b2a7690",
    "name": "Naresh Desai Cng Pump",
    "latitude": 20.321529,
    "longitude": 72.902689,
    "city": "",
    "state": "Daman and Diu",
    "source": "osm",
    "address": "Daman and Diu"
  },
  {
    "id": "cng-d4e0c665",
    "name": "Badarpur Service Station",
    "latitude": 28.619637,
    "longitude": 77.341117,
    "city": "",
    "state": "Delhi",
    "source": "osm",
    "address": "Delhi"
  },
  {
    "id": "cng-4da0a94c",
    "name": "Bharat Petroleum",
    "latitude": 28.563247,
    "longitude": 77.264743,
    "city": "",
    "state": "Delhi",
    "source": "osm",
    "address": "Delhi"
  },
  {
    "id": "cng-26c3b5fa",
    "name": "Cng Filling Station , Police Line",
    "latitude": 28.688845,
    "longitude": 77.10395,
    "city": "",
    "state": "Delhi",
    "source": "osm",
    "address": "Delhi"
  },
  {
    "id": "cng-c4696741",
    "name": "Cng Fuel Station",
    "latitude": 28.595924,
    "longitude": 77.029008,
    "city": "",
    "state": "Delhi",
    "source": "osm",
    "address": "Delhi",
    "operator": "IGL"
  },
  {
    "id": "cng-1d557cac",
    "name": "Cng Fuel Station",
    "latitude": 28.59064,
    "longitude": 77.03691,
    "city": "",
    "state": "Delhi",
    "source": "osm",
    "address": "Delhi",
    "operator": "IGL"
  },
  {
    "id": "cng-a4478083",
    "name": "Cng Pump",
    "latitude": 28.558454,
    "longitude": 77.106734,
    "city": "",
    "state": "Delhi",
    "source": "osm",
    "address": "Delhi"
  },
  {
    "id": "cng-5f1996b5",
    "name": "Cng Station",
    "latitude": 28.521758,
    "longitude": 77.166746,
    "city": "",
    "state": "Delhi",
    "source": "osm",
    "address": "Delhi"
  },
  {
    "id": "cng-c5a686e6",
    "name": "Cng Station",
    "latitude": 28.538545,
    "longitude": 77.13264,
    "city": "",
    "state": "Delhi",
    "source": "osm",
    "address": "Delhi"
  },
  {
    "id": "cng-0ec1d208",
    "name": "Cng Station",
    "latitude": 28.650427,
    "longitude": 77.268427,
    "city": "",
    "state": "Delhi",
    "source": "osm",
    "address": "Delhi"
  },
  {
    "id": "cng-520e4df1",
    "name": "Cng Station",
    "latitude": 28.706513,
    "longitude": 77.185282,
    "city": "",
    "state": "Delhi",
    "source": "osm",
    "address": "Delhi"
  },
  {
    "id": "cng-b3224d59",
    "name": "Cng Station",
    "latitude": 28.6855,
    "longitude": 77.148747,
    "city": "",
    "state": "Delhi",
    "source": "osm",
    "address": "Delhi"
  },
  {
    "id": "cng-2ef3987c",
    "name": "Cng Station",
    "latitude": 28.608699,
    "longitude": 77.252827,
    "city": "",
    "state": "Delhi",
    "source": "osm",
    "address": "Delhi"
  },
  {
    "id": "cng-ed3ec899",
    "name": "Cng Station",
    "latitude": 28.486936,
    "longitude": 77.187828,
    "city": "",
    "state": "Delhi",
    "source": "osm",
    "address": "Delhi"
  },
  {
    "id": "cng-3b470500",
    "name": "Cng Station",
    "latitude": 28.640187,
    "longitude": 77.256493,
    "city": "",
    "state": "Delhi",
    "source": "osm",
    "address": "Delhi"
  },
  {
    "id": "cng-ce9d1044",
    "name": "Cng Station",
    "latitude": 28.721062,
    "longitude": 77.217155,
    "city": "",
    "state": "Delhi",
    "source": "osm",
    "address": "Delhi"
  },
  {
    "id": "cng-49fff5ab",
    "name": "Cng Station",
    "latitude": 28.458053,
    "longitude": 77.047127,
    "city": "",
    "state": "Delhi",
    "source": "osm",
    "address": "Delhi"
  },
  {
    "id": "cng-18fabf31",
    "name": "Cng Station",
    "latitude": 28.623044,
    "longitude": 77.311212,
    "city": "",
    "state": "Delhi",
    "source": "osm",
    "address": "Delhi"
  },
  {
    "id": "cng-89cd36ee",
    "name": "Cng Station",
    "latitude": 28.587339,
    "longitude": 77.235539,
    "city": "",
    "state": "Delhi",
    "source": "osm",
    "address": "Delhi"
  },
  {
    "id": "cng-ae31f6f1",
    "name": "Cng Station",
    "latitude": 28.855781,
    "longitude": 77.124404,
    "city": "",
    "state": "Delhi",
    "source": "osm",
    "address": "Delhi"
  },
  {
    "id": "cng-f9352215",
    "name": "Cng Station",
    "latitude": 28.853685,
    "longitude": 77.124776,
    "city": "",
    "state": "Delhi",
    "source": "osm",
    "address": "Delhi"
  },
  {
    "id": "cng-6c49c31c",
    "name": "Cng Station",
    "latitude": 28.625809,
    "longitude": 77.314583,
    "city": "",
    "state": "Delhi",
    "source": "osm",
    "address": "Delhi"
  },
  {
    "id": "cng-95ce95a6",
    "name": "Cng Station",
    "latitude": 28.67306,
    "longitude": 77.283197,
    "city": "",
    "state": "Delhi",
    "source": "osm",
    "address": "Delhi"
  },
  {
    "id": "cng-e2f1ddd8",
    "name": "Cng Station",
    "latitude": 28.723486,
    "longitude": 77.165038,
    "city": "",
    "state": "Delhi",
    "source": "osm",
    "address": "Delhi"
  },
  {
    "id": "cng-3699eff9",
    "name": "Cng Station",
    "latitude": 28.842084,
    "longitude": 77.101721,
    "city": "",
    "state": "Delhi",
    "source": "osm",
    "address": "Delhi"
  },
  {
    "id": "cng-5c7b74a6",
    "name": "Cng Station",
    "latitude": 28.425844,
    "longitude": 77.025872,
    "city": "",
    "state": "Delhi",
    "source": "osm",
    "address": "Delhi"
  },
  {
    "id": "cng-f3995749",
    "name": "Cng Station",
    "latitude": 28.427369,
    "longitude": 77.023342,
    "city": "",
    "state": "Delhi",
    "source": "osm",
    "address": "Delhi"
  },
  {
    "id": "cng-88728f22",
    "name": "Cng Station",
    "latitude": 28.428086,
    "longitude": 77.021113,
    "city": "",
    "state": "Delhi",
    "source": "osm",
    "address": "Delhi"
  },
  {
    "id": "cng-d7eecbd4",
    "name": "Cng Station",
    "latitude": 28.439833,
    "longitude": 77.00361,
    "city": "",
    "state": "Delhi",
    "source": "osm",
    "address": "Delhi"
  },
  {
    "id": "cng-818facd2",
    "name": "Cng Station",
    "latitude": 28.449793,
    "longitude": 76.99687,
    "city": "",
    "state": "Delhi",
    "source": "osm",
    "address": "Delhi"
  },
  {
    "id": "cng-1f1f9a05",
    "name": "Cng Station",
    "latitude": 28.537558,
    "longitude": 77.153235,
    "city": "",
    "state": "Delhi",
    "source": "osm",
    "address": "Delhi"
  },
  {
    "id": "cng-cb5efeff",
    "name": "Hcg",
    "latitude": 28.449699,
    "longitude": 77.091059,
    "city": "",
    "state": "Delhi",
    "source": "osm",
    "address": "Delhi"
  },
  {
    "id": "cng-ff5b1ed4",
    "name": "Hcg Cng Station",
    "latitude": 28.431899,
    "longitude": 77.099737,
    "city": "",
    "state": "Delhi",
    "source": "osm",
    "address": "Delhi"
  },
  {
    "id": "cng-e6780fbb",
    "name": "Hp",
    "latitude": 28.494525,
    "longitude": 77.303591,
    "city": "",
    "state": "Delhi",
    "source": "osm",
    "address": "Delhi"
  },
  {
    "id": "cng-5a458b15",
    "name": "Hp",
    "latitude": 28.602123,
    "longitude": 77.230004,
    "city": "",
    "state": "Delhi",
    "source": "osm",
    "address": "Delhi"
  },
  {
    "id": "cng-61ae9dae",
    "name": "Hp",
    "latitude": 28.585781,
    "longitude": 77.240414,
    "city": "",
    "state": "Delhi",
    "source": "osm",
    "address": "Delhi"
  },
  {
    "id": "cng-e3232429",
    "name": "Hp Petrol Pump",
    "latitude": 28.675266,
    "longitude": 77.291325,
    "city": "",
    "state": "Delhi",
    "source": "osm",
    "address": "Delhi"
  },
  {
    "id": "cng-ff682424",
    "name": "Igl",
    "latitude": 28.572138,
    "longitude": 77.137474,
    "city": "",
    "state": "Delhi",
    "source": "osm",
    "address": "Delhi",
    "operator": "IGL"
  },
  {
    "id": "cng-55751b53",
    "name": "Igl",
    "latitude": 28.569962,
    "longitude": 77.196442,
    "city": "",
    "state": "Delhi",
    "source": "osm",
    "address": "Delhi",
    "operator": "IGL"
  },
  {
    "id": "cng-37e9ad4f",
    "name": "Igl",
    "latitude": 28.672379,
    "longitude": 77.152943,
    "city": "",
    "state": "Delhi",
    "source": "osm",
    "address": "Delhi",
    "operator": "IGL"
  },
  {
    "id": "cng-6fa45a2f",
    "name": "Igl",
    "latitude": 28.662831,
    "longitude": 77.129539,
    "city": "",
    "state": "Delhi",
    "source": "osm",
    "address": "Delhi",
    "operator": "IGL"
  },
  {
    "id": "cng-2e6992f6",
    "name": "Igl",
    "latitude": 28.553235,
    "longitude": 77.180472,
    "city": "",
    "state": "Delhi",
    "source": "osm",
    "address": "Delhi",
    "operator": "IGL"
  },
  {
    "id": "cng-c7d00fc1",
    "name": "Igl",
    "latitude": 28.529386,
    "longitude": 77.272819,
    "city": "",
    "state": "Delhi",
    "source": "osm",
    "address": "Delhi",
    "operator": "IGL"
  },
  {
    "id": "cng-dcbe0beb",
    "name": "Igl",
    "latitude": 28.547714,
    "longitude": 77.255391,
    "city": "",
    "state": "Delhi",
    "source": "osm",
    "address": "Delhi",
    "operator": "IGL"
  },
  {
    "id": "cng-e0198941",
    "name": "Igl",
    "latitude": 28.629276,
    "longitude": 77.321696,
    "city": "",
    "state": "Delhi",
    "source": "osm",
    "address": "Delhi",
    "operator": "IGL"
  },
  {
    "id": "cng-bc83aa2d",
    "name": "Igl",
    "latitude": 28.641776,
    "longitude": 77.225972,
    "city": "",
    "state": "Delhi",
    "source": "osm",
    "address": "Delhi",
    "operator": "IGL"
  },
  {
    "id": "cng-60cd0c3f",
    "name": "Igl",
    "latitude": 28.537878,
    "longitude": 77.289798,
    "city": "",
    "state": "Delhi",
    "source": "osm",
    "address": "Delhi",
    "operator": "IGL"
  },
  {
    "id": "cng-cbb4870d",
    "name": "Igl",
    "latitude": 28.629789,
    "longitude": 77.312399,
    "city": "",
    "state": "Delhi",
    "source": "osm",
    "address": "Delhi",
    "operator": "IGL"
  },
  {
    "id": "cng-23bf8350",
    "name": "Igl",
    "latitude": 28.774554,
    "longitude": 77.065389,
    "city": "",
    "state": "Delhi",
    "source": "osm",
    "address": "Delhi",
    "operator": "IGL"
  },
  {
    "id": "cng-4c6246d4",
    "name": "Igl",
    "latitude": 28.837251,
    "longitude": 77.12884,
    "city": "",
    "state": "Delhi",
    "source": "osm",
    "address": "Delhi",
    "operator": "IGL"
  },
  {
    "id": "cng-f1fd516c",
    "name": "Igl",
    "latitude": 28.846348,
    "longitude": 77.126132,
    "city": "",
    "state": "Delhi",
    "source": "osm",
    "address": "Delhi",
    "operator": "IGL"
  },
  {
    "id": "cng-f5f7eca6",
    "name": "Igl",
    "latitude": 28.690212,
    "longitude": 77.097476,
    "city": "",
    "state": "Delhi",
    "source": "osm",
    "address": "Delhi",
    "operator": "IGL"
  },
  {
    "id": "cng-89aa8b5b",
    "name": "Igl",
    "latitude": 28.653653,
    "longitude": 77.088767,
    "city": "",
    "state": "Delhi",
    "source": "osm",
    "address": "Delhi",
    "operator": "IGL"
  },
  {
    "id": "cng-e0ebba85",
    "name": "Igl",
    "latitude": 28.580591,
    "longitude": 77.179592,
    "city": "",
    "state": "Delhi",
    "source": "osm",
    "address": "Delhi",
    "operator": "IGL"
  },
  {
    "id": "cng-ff8fec18",
    "name": "Igl",
    "latitude": 28.745614,
    "longitude": 77.151301,
    "city": "",
    "state": "Delhi",
    "source": "osm",
    "address": "Delhi",
    "operator": "IGL"
  },
  {
    "id": "cng-aeeb93cc",
    "name": "Igl",
    "latitude": 28.53093,
    "longitude": 77.232248,
    "city": "",
    "state": "Delhi",
    "source": "osm",
    "address": "Delhi",
    "operator": "IGL"
  },
  {
    "id": "cng-9431f246",
    "name": "Igl",
    "latitude": 28.406072,
    "longitude": 77.043148,
    "city": "",
    "state": "Delhi",
    "source": "osm",
    "address": "Delhi",
    "operator": "IGL"
  },
  {
    "id": "cng-802259ca",
    "name": "Igl",
    "latitude": 28.666346,
    "longitude": 77.307588,
    "city": "",
    "state": "Delhi",
    "source": "osm",
    "address": "Delhi",
    "operator": "IGL"
  },
  {
    "id": "cng-55c22aea",
    "name": "Igl Cng Station",
    "latitude": 28.667582,
    "longitude": 77.087513,
    "city": "",
    "state": "Delhi",
    "source": "osm",
    "address": "Delhi",
    "operator": "IGL"
  },
  {
    "id": "cng-9fd59118",
    "name": "Indian Oil",
    "latitude": 28.504343,
    "longitude": 77.171999,
    "city": "",
    "state": "Delhi",
    "source": "osm",
    "address": "Delhi"
  },
  {
    "id": "cng-c490ce47",
    "name": "Indian Oil",
    "latitude": 28.585527,
    "longitude": 77.309298,
    "city": "",
    "state": "Delhi",
    "source": "osm",
    "address": "Delhi"
  },
  {
    "id": "cng-73531ed8",
    "name": "Indian Oil",
    "latitude": 28.564706,
    "longitude": 77.177629,
    "city": "",
    "state": "Delhi",
    "source": "osm",
    "address": "Delhi"
  },
  {
    "id": "cng-2dc73b0d",
    "name": "Indian Oil",
    "latitude": 28.570773,
    "longitude": 77.163403,
    "city": "",
    "state": "Delhi",
    "source": "osm",
    "address": "Delhi"
  },
  {
    "id": "cng-478c9db0",
    "name": "Indian Oil",
    "latitude": 28.56764,
    "longitude": 77.253928,
    "city": "",
    "state": "Delhi",
    "source": "osm",
    "address": "Delhi"
  },
  {
    "id": "cng-a7556e57",
    "name": "Indian Oil",
    "latitude": 28.624883,
    "longitude": 77.305303,
    "city": "",
    "state": "Delhi",
    "source": "osm",
    "address": "Delhi"
  },
  {
    "id": "cng-64fe66f9",
    "name": "Indraprastha Cng Gas Station Pump",
    "latitude": 28.575236,
    "longitude": 77.067756,
    "city": "",
    "state": "Delhi",
    "source": "osm",
    "address": "Delhi"
  },
  {
    "id": "cng-d2e3b6a4",
    "name": "Indraprastha Gas Limited",
    "latitude": 28.584878,
    "longitude": 77.260221,
    "city": "",
    "state": "Delhi",
    "source": "osm",
    "address": "Delhi",
    "operator": "IGL"
  },
  {
    "id": "cng-3d7702e7",
    "name": "Indraprastha Gas Limited",
    "latitude": 28.618616,
    "longitude": 77.249307,
    "city": "",
    "state": "Delhi",
    "source": "osm",
    "address": "Delhi",
    "operator": "IGL"
  },
  {
    "id": "cng-08798f94",
    "name": "Indraprastha Gas Limited",
    "latitude": 28.681886,
    "longitude": 77.229799,
    "city": "",
    "state": "Delhi",
    "source": "osm",
    "address": "Delhi"
  },
  {
    "id": "cng-b1a0d729",
    "name": "Indraprastha Gas Limited",
    "latitude": 28.606621,
    "longitude": 77.14166,
    "city": "",
    "state": "Delhi",
    "source": "osm",
    "address": "Delhi"
  },
  {
    "id": "cng-2c37b083",
    "name": "Indraprastha Gas Limited",
    "latitude": 28.686107,
    "longitude": 77.330811,
    "city": "",
    "state": "Delhi",
    "source": "osm",
    "address": "Delhi"
  },
  {
    "id": "cng-6a833784",
    "name": "Indraprastha Gas Limited Cng Station",
    "latitude": 28.661908,
    "longitude": 77.299923,
    "city": "",
    "state": "Delhi",
    "source": "osm",
    "address": "Delhi"
  },
  {
    "id": "cng-86342c32",
    "name": "Indraprastha Gas Limited Cng Station",
    "latitude": 28.685884,
    "longitude": 77.318648,
    "city": "",
    "state": "Delhi",
    "source": "osm",
    "address": "Delhi"
  },
  {
    "id": "cng-58cffe3a",
    "name": "M/S. Shivan Auto Centre",
    "latitude": 28.621453,
    "longitude": 77.301602,
    "city": "",
    "state": "Delhi",
    "source": "osm",
    "address": "Delhi"
  },
  {
    "id": "cng-a1b44fa3",
    "name": "Panchshila Service Station",
    "latitude": 28.561444,
    "longitude": 77.222783,
    "city": "",
    "state": "Delhi",
    "source": "osm",
    "address": "Delhi"
  },
  {
    "id": "cng-008fbc8a",
    "name": "Indraprastha Cng",
    "latitude": 28.655592,
    "longitude": 77.349456,
    "city": "Ghaziabad",
    "state": "Delhi",
    "source": "osm",
    "address": "Sector 9, Ghaziabad, Delhi",
    "operator": "IGL"
  },
  {
    "id": "cng-15fe6a92",
    "name": "Haryana City Gas (Hcg) Cng Pump",
    "latitude": 28.452132,
    "longitude": 77.075083,
    "city": "Gurgaon",
    "state": "Delhi",
    "source": "osm",
    "address": "Gurgaon, Delhi"
  },
  {
    "id": "cng-c85879f4",
    "name": "Indraprastha Gas Station",
    "latitude": 28.567528,
    "longitude": 77.175636,
    "city": "New Delhi",
    "state": "Delhi",
    "source": "osm",
    "address": "Tamil Sangam Marg, New Delhi, Delhi",
    "operator": "IGL"
  },
  {
    "id": "cng-ba36b2a5",
    "name": "Cng Station",
    "latitude": 28.730446,
    "longitude": 77.117738,
    "city": "Rohini, Delhi",
    "state": "Delhi",
    "source": "osm",
    "address": "Sector - 12, Rohini, Delhi, Delhi"
  },
  {
    "id": "cng-63e5a950",
    "name": "Igl Cng Pump",
    "latitude": 28.597112,
    "longitude": 77.058786,
    "city": "Sector 5 Dwarka, New Delhi",
    "state": "Delhi",
    "source": "osm",
    "address": "Sector 5 Road, Sector 5 Dwarka, New Delhi, Delhi",
    "operator": "IGL"
  },
  {
    "id": "cng-c0b43b99",
    "name": "Botanical Charging Station",
    "latitude": 28.565202,
    "longitude": 77.334384,
    "city": "noida",
    "state": "Delhi",
    "source": "osm",
    "address": "bcs, noida, Delhi"
  },
  {
    "id": "cng-7c7801a3",
    "name": "India Gas Limited Cng Station",
    "latitude": 28.696549,
    "longitude": 77.291455,
    "city": "shahdara",
    "state": "Delhi",
    "source": "osm",
    "address": "India Gas Limited CNG Station, Loni Road, shahdara, Delhi"
  },
  {
    "id": "cng-238f9f19",
    "name": "Adani Cng",
    "latitude": 22.379562,
    "longitude": 73.155117,
    "city": "",
    "state": "Gujarat",
    "source": "osm",
    "address": "Gujarat",
    "operator": "Adani"
  },
  {
    "id": "cng-4f34daf2",
    "name": "Adani Cng Gas Station",
    "latitude": 23.011445,
    "longitude": 72.586437,
    "city": "",
    "state": "Gujarat",
    "source": "osm",
    "address": "Gujarat",
    "operator": "Adani"
  },
  {
    "id": "cng-cc305e33",
    "name": "Adani Cng Station",
    "latitude": 22.999159,
    "longitude": 72.603628,
    "city": "",
    "state": "Gujarat",
    "source": "osm",
    "address": "Gujarat",
    "operator": "Adani"
  },
  {
    "id": "cng-73904109",
    "name": "Bharat Patrolium Cng",
    "latitude": 23.276323,
    "longitude": 72.443245,
    "city": "",
    "state": "Gujarat",
    "source": "osm",
    "address": "Gujarat"
  },
  {
    "id": "cng-672bb13f",
    "name": "Bharat Petroleum Cng",
    "latitude": 23.279637,
    "longitude": 72.440781,
    "city": "",
    "state": "Gujarat",
    "source": "osm",
    "address": "sh-41, Gujarat"
  },
  {
    "id": "cng-d2eb9c9a",
    "name": "Bharat Petroleum Cng",
    "latitude": 23.372168,
    "longitude": 72.408946,
    "city": "",
    "state": "Gujarat",
    "source": "osm",
    "address": "Ahmedabad Palanpur State Highway SH41, Gujarat"
  },
  {
    "id": "cng-d7dbb9a5",
    "name": "Cng",
    "latitude": 22.561969,
    "longitude": 71.723137,
    "city": "",
    "state": "Gujarat",
    "source": "osm",
    "address": "NH-41, Gujarat"
  },
  {
    "id": "cng-63e2e943",
    "name": "Cng",
    "latitude": 22.56408,
    "longitude": 71.717619,
    "city": "",
    "state": "Gujarat",
    "source": "osm",
    "address": "Gujarat"
  },
  {
    "id": "cng-560e170c",
    "name": "Cng -Kabir Petrolum",
    "latitude": 21.838545,
    "longitude": 73.052773,
    "city": "",
    "state": "Gujarat",
    "source": "osm",
    "address": "Gujarat"
  },
  {
    "id": "cng-4970ab3a",
    "name": "Cng Adani",
    "latitude": 23.013519,
    "longitude": 72.564403,
    "city": "",
    "state": "Gujarat",
    "source": "osm",
    "address": "Ashram Road, Gujarat",
    "operator": "Adani"
  },
  {
    "id": "cng-103a7bd2",
    "name": "Cng And Petrol Pump",
    "latitude": 23.028945,
    "longitude": 72.673433,
    "city": "",
    "state": "Gujarat",
    "source": "osm",
    "address": "Sardar Patel Ring Road, Gujarat"
  },
  {
    "id": "cng-eff29627",
    "name": "Cng Bamanbore",
    "latitude": 22.42548,
    "longitude": 71.085541,
    "city": "",
    "state": "Gujarat",
    "source": "osm",
    "address": "National Highway 8A, Gujarat"
  },
  {
    "id": "cng-13ec8d3a",
    "name": "Cng Bharat Petroleum",
    "latitude": 23.040089,
    "longitude": 72.57813,
    "city": "",
    "state": "Gujarat",
    "source": "osm",
    "address": "Kasturba Gandhi Road, Gujarat"
  },
  {
    "id": "cng-09bd614e",
    "name": "Cng Gas Only",
    "latitude": 23.210959,
    "longitude": 72.52955,
    "city": "",
    "state": "Gujarat",
    "source": "osm",
    "address": "Gujarat"
  },
  {
    "id": "cng-7754dbd7",
    "name": "Cng Gas Station",
    "latitude": 23.084673,
    "longitude": 72.686259,
    "city": "",
    "state": "Gujarat",
    "source": "osm",
    "address": "Sardar Patel Ring Road, Gujarat"
  },
  {
    "id": "cng-150189f1",
    "name": "Cng Gujarat",
    "latitude": 22.079716,
    "longitude": 73.160338,
    "city": "",
    "state": "Gujarat",
    "source": "osm",
    "address": "Gujarat"
  },
  {
    "id": "cng-9eae16fa",
    "name": "Cng Hp Petroleum",
    "latitude": 22.646179,
    "longitude": 72.206306,
    "city": "",
    "state": "Gujarat",
    "source": "osm",
    "address": "Gujarat"
  },
  {
    "id": "cng-6c82eeb7",
    "name": "Cng Indian Oil Petrol Pump",
    "latitude": 22.284186,
    "longitude": 70.769197,
    "city": "",
    "state": "Gujarat",
    "source": "osm",
    "address": "Gujarat"
  },
  {
    "id": "cng-26b24f40",
    "name": "Cng Indian Oil Petrol Pump",
    "latitude": 22.258577,
    "longitude": 70.704029,
    "city": "",
    "state": "Gujarat",
    "source": "osm",
    "address": "Gujarat"
  },
  {
    "id": "cng-c6d139ae",
    "name": "Cng Petrol Pump",
    "latitude": 23.052345,
    "longitude": 72.631946,
    "city": "",
    "state": "Gujarat",
    "source": "osm",
    "address": "Gujarat"
  },
  {
    "id": "cng-f87a3470",
    "name": "Cng Petrol Pump",
    "latitude": 22.345042,
    "longitude": 73.202483,
    "city": "",
    "state": "Gujarat",
    "source": "osm",
    "address": "Gujarat"
  },
  {
    "id": "cng-5e713539",
    "name": "Cng Petrol Pump",
    "latitude": 21.298809,
    "longitude": 72.953897,
    "city": "",
    "state": "Gujarat",
    "source": "osm",
    "address": "Gujarat"
  },
  {
    "id": "cng-640ad105",
    "name": "Cng Petrol Pump",
    "latitude": 23.026704,
    "longitude": 72.526047,
    "city": "",
    "state": "Gujarat",
    "source": "osm",
    "address": "Gujarat"
  },
  {
    "id": "cng-751fd0a8",
    "name": "Cng Pump",
    "latitude": 22.574383,
    "longitude": 71.815088,
    "city": "",
    "state": "Gujarat",
    "source": "osm",
    "address": "Gujarat"
  },
  {
    "id": "cng-c203b59c",
    "name": "Cng Pump",
    "latitude": 22.379654,
    "longitude": 73.191663,
    "city": "",
    "state": "Gujarat",
    "source": "osm",
    "address": "Sama-Savli Rd, Gujarat"
  },
  {
    "id": "cng-9b229bc6",
    "name": "Cng Pump Bharat Petroleum",
    "latitude": 22.234306,
    "longitude": 73.188365,
    "city": "",
    "state": "Gujarat",
    "source": "osm",
    "address": "Vadodara Bypass, Gujarat"
  },
  {
    "id": "cng-345d2128",
    "name": "Cng Pump Gspc",
    "latitude": 22.539844,
    "longitude": 72.928869,
    "city": "",
    "state": "Gujarat",
    "source": "osm",
    "address": "Gujarat"
  },
  {
    "id": "cng-300c3c11",
    "name": "Cng Station",
    "latitude": 23.057951,
    "longitude": 72.643162,
    "city": "",
    "state": "Gujarat",
    "source": "osm",
    "address": "Gujarat"
  },
  {
    "id": "cng-862cddda",
    "name": "Cng Station",
    "latitude": 20.911708,
    "longitude": 70.362812,
    "city": "",
    "state": "Gujarat",
    "source": "osm",
    "address": "Gujarat"
  },
  {
    "id": "cng-fc05e86a",
    "name": "Cng Station",
    "latitude": 23.161916,
    "longitude": 72.588276,
    "city": "",
    "state": "Gujarat",
    "source": "osm",
    "address": "Gujarat"
  },
  {
    "id": "cng-5fe3ed06",
    "name": "Cng Station Mother",
    "latitude": 23.568588,
    "longitude": 72.35461,
    "city": "",
    "state": "Gujarat",
    "source": "osm",
    "address": "Bechraji road, Gujarat"
  },
  {
    "id": "cng-d70c9c2c",
    "name": "Cng Stattion",
    "latitude": 22.935932,
    "longitude": 72.49878,
    "city": "",
    "state": "Gujarat",
    "source": "osm",
    "address": "Gujarat"
  },
  {
    "id": "cng-5f7eef1d",
    "name": "Cng Vadodara",
    "latitude": 22.315289,
    "longitude": 73.164874,
    "city": "",
    "state": "Gujarat",
    "source": "osm",
    "address": "Race Course Road, Gujarat"
  },
  {
    "id": "cng-5bc4ec85",
    "name": "Gail Gas",
    "latitude": 22.386414,
    "longitude": 73.144671,
    "city": "",
    "state": "Gujarat",
    "source": "osm",
    "address": "Gujarat",
    "operator": "GAIL"
  },
  {
    "id": "cng-178fc5e5",
    "name": "Gujarat Gas Cng",
    "latitude": 22.860433,
    "longitude": 71.797888,
    "city": "",
    "state": "Gujarat",
    "source": "osm",
    "address": "lakhtar road, Gujarat",
    "operator": "Gujarat Gas"
  },
  {
    "id": "cng-97c644dd",
    "name": "Gujarat Gas Cng Pump",
    "latitude": 22.714545,
    "longitude": 71.605548,
    "city": "",
    "state": "Gujarat",
    "source": "osm",
    "address": "Gujarat",
    "operator": "Gujarat Gas"
  },
  {
    "id": "cng-7cd8a6e6",
    "name": "Gujarat Gas Cng Station",
    "latitude": 22.843443,
    "longitude": 70.859745,
    "city": "",
    "state": "Gujarat",
    "source": "osm",
    "address": "Gujarat",
    "operator": "Gujarat Gas"
  },
  {
    "id": "cng-85511c90",
    "name": "Gujarat Gas Cng Station",
    "latitude": 21.750262,
    "longitude": 72.133216,
    "city": "",
    "state": "Gujarat",
    "source": "osm",
    "address": "Gujarat",
    "operator": "Gujarat Gas"
  },
  {
    "id": "cng-72a7f0a8",
    "name": "Indian Oil",
    "latitude": 22.620383,
    "longitude": 70.522228,
    "city": "",
    "state": "Gujarat",
    "source": "osm",
    "address": "Gujarat"
  },
  {
    "id": "cng-77a3fb50",
    "name": "Indian Oil",
    "latitude": 22.867179,
    "longitude": 72.457682,
    "city": "",
    "state": "Gujarat",
    "source": "osm",
    "address": "Gujarat"
  },
  {
    "id": "cng-3fc9d34e",
    "name": "Indian Oil Cng N Petrol",
    "latitude": 23.029281,
    "longitude": 72.475028,
    "city": "",
    "state": "Gujarat",
    "source": "osm",
    "address": "Ambli Bopal Road, Gujarat"
  },
  {
    "id": "cng-b0b6bbde",
    "name": "Mm Bharat Petroleum",
    "latitude": 23.609766,
    "longitude": 72.36706,
    "city": "",
    "state": "Gujarat",
    "source": "osm",
    "address": "Gujarat"
  },
  {
    "id": "cng-f4e4d37a",
    "name": "Pashabhai B Patel Petrol N Cng",
    "latitude": 23.587755,
    "longitude": 72.377049,
    "city": "",
    "state": "Gujarat",
    "source": "osm",
    "address": "Ahmedabad Palanpur State Highway SH41, Gujarat"
  },
  {
    "id": "cng-87b1b6b3",
    "name": "Petrol Cng Pump",
    "latitude": 23.021968,
    "longitude": 72.650824,
    "city": "",
    "state": "Gujarat",
    "source": "osm",
    "address": "Odhav Road, Gujarat"
  },
  {
    "id": "cng-d05aeac5",
    "name": "Sabarmati Gas",
    "latitude": 23.592692,
    "longitude": 72.330038,
    "city": "",
    "state": "Gujarat",
    "source": "osm",
    "address": "Gujarat",
    "operator": "Sabarmati"
  },
  {
    "id": "cng-6d6d953a",
    "name": "Sabarmati Gas Station",
    "latitude": 23.581764,
    "longitude": 72.965692,
    "city": "",
    "state": "Gujarat",
    "source": "osm",
    "address": "Gujarat",
    "operator": "Sabarmati"
  },
  {
    "id": "cng-109160f2",
    "name": "Sabarmati Railway Station",
    "latitude": 23.069675,
    "longitude": 72.586449,
    "city": "",
    "state": "Gujarat",
    "source": "osm",
    "address": "Gujarat",
    "operator": "Sabarmati"
  },
  {
    "id": "cng-1bfce8f0",
    "name": "Torrent Power Substation ટોરેનટ પાવર સબસટેશન",
    "latitude": 21.204138,
    "longitude": 72.859423,
    "city": "",
    "state": "Gujarat",
    "source": "osm",
    "address": "Gujarat",
    "operator": "Torrent"
  },
  {
    "id": "cng-27d3e0af",
    "name": "Bharat Petroleum",
    "latitude": 22.617619,
    "longitude": 70.549784,
    "city": "At Lalpur ,Sub Dist Dhrol ,Dist Jamnagar",
    "state": "Gujarat",
    "source": "osm",
    "address": "Dhrol To Tankara State Highway, At Lalpur ,Sub Dist Dhrol ,Dist Jamnagar, Gujarat"
  },
  {
    "id": "cng-6892919e",
    "name": "Bharat Petroleum",
    "latitude": 22.561801,
    "longitude": 70.419145,
    "city": "Dhrol",
    "state": "Gujarat",
    "source": "osm",
    "address": "Dhrol, Gujarat"
  },
  {
    "id": "cng-4dc08ebe",
    "name": "Gandhi Petrol Pump",
    "latitude": 22.609163,
    "longitude": 73.462009,
    "city": "Kalol",
    "state": "Gujarat",
    "source": "osm",
    "address": "Kalol, Gujarat"
  },
  {
    "id": "cng-7b280fa0",
    "name": "Hpcl Petrol Pump",
    "latitude": 21.169096,
    "longitude": 72.794779,
    "city": "Surat",
    "state": "Gujarat",
    "source": "osm",
    "address": "TP 4, FP 42, City Light Rd, City Light Town,, Surat, Gujarat",
    "operator": "HPCL"
  },
  {
    "id": "cng-2f3f076b",
    "name": "Gulab Bharat Petroleum And Cng",
    "latitude": 22.670785,
    "longitude": 70.752164,
    "city": "Tankara",
    "state": "Gujarat",
    "source": "osm",
    "address": "Rajkot To Morbi Highway, Tankara, Gujarat"
  },
  {
    "id": "cng-d1b81389",
    "name": "Pioneer Petrol Pump",
    "latitude": 22.328256,
    "longitude": 73.262744,
    "city": "vadodara",
    "state": "Gujarat",
    "source": "osm",
    "address": "vadodara, Gujarat"
  },
  {
    "id": "cng-2f1afbae",
    "name": "Adani Cng Gas Station",
    "latitude": 28.399023,
    "longitude": 77.350323,
    "city": "",
    "state": "Haryana",
    "source": "osm",
    "address": "Haryana",
    "operator": "Adani"
  },
  {
    "id": "cng-f4a99d6a",
    "name": "Adani Cng Station",
    "latitude": 28.400755,
    "longitude": 77.374226,
    "city": "",
    "state": "Haryana",
    "source": "osm",
    "address": "Haryana",
    "operator": "Adani"
  },
  {
    "id": "cng-a62efa97",
    "name": "Adani Gas",
    "latitude": 27.944461,
    "longitude": 77.348444,
    "city": "",
    "state": "Haryana",
    "source": "osm",
    "address": "Haryana",
    "operator": "Adani"
  },
  {
    "id": "cng-0481ead0",
    "name": "Adani Gas",
    "latitude": 28.078343,
    "longitude": 77.343426,
    "city": "",
    "state": "Haryana",
    "source": "osm",
    "address": "Haryana",
    "operator": "Adani"
  },
  {
    "id": "cng-0e87bb79",
    "name": "Adani Gas",
    "latitude": 28.044347,
    "longitude": 77.342128,
    "city": "",
    "state": "Haryana",
    "source": "osm",
    "address": "Haryana",
    "operator": "Adani"
  },
  {
    "id": "cng-4bd4bc57",
    "name": "Adani Gas",
    "latitude": 28.070323,
    "longitude": 77.343871,
    "city": "",
    "state": "Haryana",
    "source": "osm",
    "address": "Haryana",
    "operator": "Adani"
  },
  {
    "id": "cng-3d13a3e8",
    "name": "Adani Gas",
    "latitude": 28.187041,
    "longitude": 77.313351,
    "city": "",
    "state": "Haryana",
    "source": "osm",
    "address": "Haryana",
    "operator": "Adani"
  },
  {
    "id": "cng-f221ec2d",
    "name": "Adani Gas",
    "latitude": 28.196423,
    "longitude": 77.310874,
    "city": "",
    "state": "Haryana",
    "source": "osm",
    "address": "Haryana",
    "operator": "Adani"
  },
  {
    "id": "cng-a73d5cf8",
    "name": "Adani Gas",
    "latitude": 28.244158,
    "longitude": 77.28947,
    "city": "",
    "state": "Haryana",
    "source": "osm",
    "address": "Haryana",
    "operator": "Adani"
  },
  {
    "id": "cng-b8e730b0",
    "name": "Adani Gas",
    "latitude": 28.266092,
    "longitude": 77.287942,
    "city": "",
    "state": "Haryana",
    "source": "osm",
    "address": "Haryana",
    "operator": "Adani"
  },
  {
    "id": "cng-0ad47272",
    "name": "Cng Station",
    "latitude": 28.397792,
    "longitude": 76.932488,
    "city": "",
    "state": "Haryana",
    "source": "osm",
    "address": "Haryana"
  },
  {
    "id": "cng-9ecaf9c1",
    "name": "Cng Station",
    "latitude": 28.952208,
    "longitude": 77.094536,
    "city": "",
    "state": "Haryana",
    "source": "osm",
    "address": "Haryana"
  },
  {
    "id": "cng-868658bf",
    "name": "Cng Station",
    "latitude": 28.732903,
    "longitude": 77.558978,
    "city": "",
    "state": "Haryana",
    "source": "osm",
    "address": "Haryana"
  },
  {
    "id": "cng-12f91e4f",
    "name": "Essar",
    "latitude": 29.306693,
    "longitude": 76.993431,
    "city": "",
    "state": "Haryana",
    "source": "osm",
    "address": "Haryana"
  },
  {
    "id": "cng-38cfa29c",
    "name": "Gail Cng Station",
    "latitude": 29.0904,
    "longitude": 77.055726,
    "city": "",
    "state": "Haryana",
    "source": "osm",
    "address": "Haryana",
    "operator": "GAIL"
  },
  {
    "id": "cng-3fc4d128",
    "name": "Gail Gas",
    "latitude": 27.832805,
    "longitude": 77.417127,
    "city": "",
    "state": "Haryana",
    "source": "osm",
    "address": "Haryana",
    "operator": "GAIL"
  },
  {
    "id": "cng-6749a9a9",
    "name": "Igl",
    "latitude": 28.596008,
    "longitude": 77.372681,
    "city": "",
    "state": "Haryana",
    "source": "osm",
    "address": "Haryana",
    "operator": "IGL"
  },
  {
    "id": "cng-d788af5c",
    "name": "Igl",
    "latitude": 28.69056,
    "longitude": 77.485078,
    "city": "",
    "state": "Haryana",
    "source": "osm",
    "address": "Haryana",
    "operator": "IGL"
  },
  {
    "id": "cng-1f44bfa7",
    "name": "Igl",
    "latitude": 28.310444,
    "longitude": 77.066279,
    "city": "",
    "state": "Haryana",
    "source": "osm",
    "address": "Haryana",
    "operator": "IGL"
  },
  {
    "id": "cng-cf6d22be",
    "name": "Indian Oil",
    "latitude": 28.632859,
    "longitude": 77.351153,
    "city": "",
    "state": "Haryana",
    "source": "osm",
    "address": "Haryana"
  },
  {
    "id": "cng-175cfb03",
    "name": "Indian Oil Petrol Pump",
    "latitude": 29.329022,
    "longitude": 75.843046,
    "city": "",
    "state": "Haryana",
    "source": "osm",
    "address": "Haryana"
  },
  {
    "id": "cng-5338e871",
    "name": "Indraprastha Gas Limited Cng Station",
    "latitude": 28.525984,
    "longitude": 77.37028,
    "city": "",
    "state": "Haryana",
    "source": "osm",
    "address": "Haryana"
  },
  {
    "id": "cng-b0db9af5",
    "name": "Kargill Shaheed Riyasat Filling Station",
    "latitude": 29.264592,
    "longitude": 77.004395,
    "city": "",
    "state": "Haryana",
    "source": "osm",
    "address": "Haryana"
  },
  {
    "id": "cng-d2f3fb36",
    "name": "Shaheed Shyodanaram Fuel Station",
    "latitude": 27.680984,
    "longitude": 75.091213,
    "city": "",
    "state": "Haryana",
    "source": "osm",
    "address": "Haryana"
  },
  {
    "id": "cng-d63dfac3",
    "name": "इंडीयन आयल",
    "latitude": 28.14731,
    "longitude": 77.572845,
    "city": "",
    "state": "Haryana",
    "source": "osm",
    "address": "35 KM Stone Yamuna Expressway, Sabota Mustafabad, Noida, Uttar Pradesh, Haryana"
  },
  {
    "id": "cng-0fee728a",
    "name": "Bisrakh Fcs",
    "latitude": 28.574578,
    "longitude": 77.444915,
    "city": "GREATER NOIDA",
    "state": "Haryana",
    "source": "osm",
    "address": "BISRAKH, GREATER NOIDA, Haryana"
  },
  {
    "id": "cng-c5aa6802",
    "name": "Gbu- Charging Station",
    "latitude": 28.424586,
    "longitude": 77.520999,
    "city": "GREATER NOIDA",
    "state": "Haryana",
    "source": "osm",
    "address": "4, GBU, GREATER NOIDA, Haryana"
  },
  {
    "id": "cng-fb8b1d37",
    "name": "Adani Cng Station",
    "latitude": 23.454226,
    "longitude": 87.471064,
    "city": "",
    "state": "Jharkhand",
    "source": "osm",
    "address": "Jharkhand",
    "operator": "Adani"
  },
  {
    "id": "cng-69ec1562",
    "name": "Cng Station",
    "latitude": 22.41874,
    "longitude": 87.325087,
    "city": "",
    "state": "Jharkhand",
    "source": "osm",
    "address": "Jharkhand"
  },
  {
    "id": "cng-adcefda5",
    "name": "Gupta Petroleum",
    "latitude": 23.756966,
    "longitude": 86.339138,
    "city": "",
    "state": "Jharkhand",
    "source": "osm",
    "address": "Jharkhand"
  },
  {
    "id": "cng-3cac653e",
    "name": "Indian Oil",
    "latitude": 23.623407,
    "longitude": 86.18418,
    "city": "",
    "state": "Jharkhand",
    "source": "osm",
    "address": "Jharkhand"
  },
  {
    "id": "cng-d703198a",
    "name": "Ashoka Cng",
    "latitude": 18.385962,
    "longitude": 76.550967,
    "city": "",
    "state": "Karnataka",
    "source": "osm",
    "address": "Karnataka"
  },
  {
    "id": "cng-80c7a876",
    "name": "Ashoka Cng Pump",
    "latitude": 18.376871,
    "longitude": 76.558271,
    "city": "",
    "state": "Karnataka",
    "source": "osm",
    "address": "Karnataka"
  },
  {
    "id": "cng-2bee24d7",
    "name": "Gail Gas Cng Station",
    "latitude": 12.947796,
    "longitude": 74.812042,
    "city": "",
    "state": "Karnataka",
    "source": "osm",
    "address": "Karnataka",
    "operator": "GAIL"
  },
  {
    "id": "cng-d3a185f3",
    "name": "Gail Gas Limited",
    "latitude": 12.942025,
    "longitude": 74.815363,
    "city": "",
    "state": "Karnataka",
    "source": "osm",
    "address": "Karnataka",
    "operator": "GAIL"
  },
  {
    "id": "cng-4e6859fa",
    "name": "Maganhalli Basappa Petrol Station",
    "latitude": 14.441589,
    "longitude": 75.922763,
    "city": "",
    "state": "Karnataka",
    "source": "osm",
    "address": "Karnataka"
  },
  {
    "id": "cng-9a7067ba",
    "name": "Saddharma Cng Gas Station",
    "latitude": 15.250734,
    "longitude": 76.360751,
    "city": "",
    "state": "Karnataka",
    "source": "osm",
    "address": "Karnataka"
  },
  {
    "id": "cng-9e96d2d7",
    "name": "Vaishnavi Petroleums",
    "latitude": 15.319893,
    "longitude": 76.310748,
    "city": "",
    "state": "Karnataka",
    "source": "osm",
    "address": "Karnataka"
  },
  {
    "id": "cng-6336dbd0",
    "name": "J P Petroleum - Bharat Petroleum",
    "latitude": 17.819548,
    "longitude": 74.093554,
    "city": "Ambawade S.W.",
    "state": "Karnataka",
    "source": "osm_extra",
    "operator": "Bharat Petroleum"
  },
  {
    "id": "cng-6cedd8bf",
    "name": "Yashwantraya Petrol Station & Cng Station",
    "latitude": 18.336388,
    "longitude": 74.374403,
    "city": "Supe",
    "state": "Karnataka",
    "source": "osm",
    "address": "Songaon Shendre Road, Supe, Karnataka"
  },
  {
    "id": "cng-53b5a4b3",
    "name": "Amrita Fuels Indianoil Petrol Pump And Cng Station",
    "latitude": 10.050351,
    "longitude": 76.294488,
    "city": "",
    "state": "Kerala",
    "source": "osm",
    "address": "Kerala"
  },
  {
    "id": "cng-2ee97350",
    "name": "Bharat Petroleum",
    "latitude": 9.990348,
    "longitude": 76.271444,
    "city": "",
    "state": "Kerala",
    "source": "osm",
    "address": "Kerala"
  },
  {
    "id": "cng-cee3c0a8",
    "name": "Indian Oil",
    "latitude": 9.985533,
    "longitude": 76.248041,
    "city": "",
    "state": "Kerala",
    "source": "osm",
    "address": "Kerala"
  },
  {
    "id": "cng-cccbdba4",
    "name": "Indian Oil",
    "latitude": 10.069899,
    "longitude": 76.33074,
    "city": "",
    "state": "Kerala",
    "source": "osm",
    "address": "Kerala"
  },
  {
    "id": "cng-9af94ef3",
    "name": "Indian Oil Adani Cng Pvt Ltd",
    "latitude": 10.817346,
    "longitude": 76.809615,
    "city": "",
    "state": "Kerala",
    "source": "osm",
    "address": "Kerala",
    "operator": "Adani"
  },
  {
    "id": "cng-7acea9c6",
    "name": "Indian Oil Petrol & Cng Pump",
    "latitude": 10.068315,
    "longitude": 76.32123,
    "city": "",
    "state": "Kerala",
    "source": "osm",
    "address": "Kerala"
  },
  {
    "id": "cng-d1098f73",
    "name": "Indian Oil Petrol Pump",
    "latitude": 9.669442,
    "longitude": 76.339168,
    "city": "",
    "state": "Kerala",
    "source": "osm",
    "address": "Kerala"
  },
  {
    "id": "cng-ea633535",
    "name": "Indianoil Cng Gas Station",
    "latitude": 10.245512,
    "longitude": 76.370154,
    "city": "",
    "state": "Kerala",
    "source": "osm",
    "address": "Kerala"
  },
  {
    "id": "cng-a9835c0d",
    "name": "Indian Oil Nadayara",
    "latitude": 8.755443,
    "longitude": 76.721274,
    "city": "Varkala",
    "state": "Kerala",
    "source": "osm",
    "address": "Varkala - Parippally - Madathara Road, Varkala, Kerala"
  },
  {
    "id": "cng-82bcefde",
    "name": "Hindusthan Petroleum",
    "latitude": 9.763205,
    "longitude": 77.109331,
    "city": "vellayamkudi",
    "state": "Kerala",
    "source": "osm",
    "address": "Adimali - Kumily Highway, vellayamkudi, Kerala"
  },
  {
    "id": "cng-ffc8daa8",
    "name": "ഇനതയൻ ഓയിൽ പെടരോൾ പമപ",
    "latitude": 9.990335,
    "longitude": 76.577181,
    "city": "മുവാറ്റുപുഴ",
    "state": "Kerala",
    "source": "osm",
    "address": "എംസി റോഡ്, വെള്ളൂർകുന്നം, മുവാറ്റുപുഴ, Kerala"
  },
  {
    "id": "cng-ad091358",
    "name": "Cng Station",
    "latitude": 22.746128,
    "longitude": 75.893793,
    "city": "",
    "state": "Madhya Pradesh",
    "source": "osm",
    "address": "Madhya Pradesh"
  },
  {
    "id": "cng-12d28a45",
    "name": "Cng Station",
    "latitude": 21.177865,
    "longitude": 79.125278,
    "city": "",
    "state": "Madhya Pradesh",
    "source": "osm",
    "address": "Madhya Pradesh"
  },
  {
    "id": "cng-684d2c64",
    "name": "Indian Oil",
    "latitude": 22.708857,
    "longitude": 77.912046,
    "city": "",
    "state": "Madhya Pradesh",
    "source": "osm",
    "address": "Madhya Pradesh"
  },
  {
    "id": "cng-e11fac8d",
    "name": "Indian Oil",
    "latitude": 26.872674,
    "longitude": 75.820837,
    "city": "",
    "state": "Madhya Pradesh",
    "source": "osm",
    "address": "Madhya Pradesh"
  },
  {
    "id": "cng-cf36bcda",
    "name": "Indian Oil Petrol Pump",
    "latitude": 24.899587,
    "longitude": 74.347347,
    "city": "",
    "state": "Madhya Pradesh",
    "source": "osm",
    "address": "Madhya Pradesh"
  },
  {
    "id": "cng-d7130b20",
    "name": "Sudarshan Filling Station",
    "latitude": 22.709314,
    "longitude": 77.896989,
    "city": "",
    "state": "Madhya Pradesh",
    "source": "osm",
    "address": "Madhya Pradesh"
  },
  {
    "id": "cng-675e82f9",
    "name": "Bharat Petroleum",
    "latitude": 22.716903,
    "longitude": 75.873126,
    "city": "Indore",
    "state": "Madhya Pradesh",
    "source": "osm",
    "address": "Infront Of DAVV, Indore, Madhya Pradesh"
  },
  {
    "id": "cng-3329cd62",
    "name": "Cng Gas Station And Petrol Pump",
    "latitude": 22.715431,
    "longitude": 75.841069,
    "city": "Indore",
    "state": "Madhya Pradesh",
    "source": "osm",
    "address": "National Highway 59, North Rajmohalla, Raj Mohalla, Indore, Madhya Pradesh"
  },
  {
    "id": "cng-713c87a7",
    "name": "Gati Corporation Pump",
    "latitude": 22.778029,
    "longitude": 75.903345,
    "city": "Indore",
    "state": "Madhya Pradesh",
    "source": "osm",
    "address": "Indore, Madhya Pradesh"
  },
  {
    "id": "cng-3994b235",
    "name": "H.S. Road Carrier Petrol Pump",
    "latitude": 22.678499,
    "longitude": 75.877801,
    "city": "Indore",
    "state": "Madhya Pradesh",
    "source": "osm",
    "address": "State Highway 27, Tejaji Nagar, Indore, Madhya Pradesh"
  },
  {
    "id": "cng-dcdd580f",
    "name": "Hp",
    "latitude": 22.717008,
    "longitude": 75.884285,
    "city": "Indore",
    "state": "Madhya Pradesh",
    "source": "osm",
    "address": "Indore, Madhya Pradesh"
  },
  {
    "id": "cng-7cea480a",
    "name": "Hp",
    "latitude": 22.716231,
    "longitude": 75.860244,
    "city": "Indore",
    "state": "Madhya Pradesh",
    "source": "osm",
    "address": "Indore, Madhya Pradesh"
  },
  {
    "id": "cng-e09b2603",
    "name": "Hp",
    "latitude": 22.695298,
    "longitude": 75.829621,
    "city": "Indore",
    "state": "Madhya Pradesh",
    "source": "osm",
    "address": "Ranjeet Hanuman Road, Gumasta Nagar, Scheme 71,, Indore, Madhya Pradesh"
  },
  {
    "id": "cng-756a8363",
    "name": "Indian Oil",
    "latitude": 22.72037,
    "longitude": 75.872283,
    "city": "Indore",
    "state": "Madhya Pradesh",
    "source": "osm",
    "address": "MG Road, Indore, Madhya Pradesh"
  },
  {
    "id": "cng-7a365171",
    "name": "Indian Oil",
    "latitude": 22.705017,
    "longitude": 75.844265,
    "city": "Indore",
    "state": "Madhya Pradesh",
    "source": "osm",
    "address": "Indore, Madhya Pradesh"
  },
  {
    "id": "cng-86076547",
    "name": "Indian Oil Petrol Pump",
    "latitude": 22.75152,
    "longitude": 75.890762,
    "city": "Indore",
    "state": "Madhya Pradesh",
    "source": "osm",
    "address": "Vijay Nagar Main Road, Indore, Madhya Pradesh"
  },
  {
    "id": "cng-c7007643",
    "name": "Indian Oil Petrol Pump",
    "latitude": 22.772818,
    "longitude": 75.902501,
    "city": "Indore",
    "state": "Madhya Pradesh",
    "source": "osm",
    "address": "Indore, Madhya Pradesh"
  },
  {
    "id": "cng-3efd2e89",
    "name": "Laxmi Petrol Pump",
    "latitude": 22.775362,
    "longitude": 75.902582,
    "city": "Indore",
    "state": "Madhya Pradesh",
    "source": "osm",
    "address": "Indore, Madhya Pradesh"
  },
  {
    "id": "cng-650db826",
    "name": "Madhur Fuel Station",
    "latitude": 22.681914,
    "longitude": 75.861174,
    "city": "Indore",
    "state": "Madhya Pradesh",
    "source": "osm",
    "address": "Scheme No 94, Rajiv Gandhi Circle, Indore, Madhya Pradesh"
  },
  {
    "id": "cng-0708eb1d",
    "name": "Police Petrol Pump",
    "latitude": 22.732356,
    "longitude": 75.846771,
    "city": "Indore",
    "state": "Madhya Pradesh",
    "source": "osm",
    "address": "Kila Maidan road, Indore, Madhya Pradesh"
  },
  {
    "id": "cng-e39d8d26",
    "name": "Poss Fuel Station",
    "latitude": 22.685143,
    "longitude": 75.911322,
    "city": "Indore",
    "state": "Madhya Pradesh",
    "source": "osm",
    "address": "Nemawar Road, Palda,, Indore, Madhya Pradesh"
  },
  {
    "id": "cng-ef674107",
    "name": "Sai Filling Station",
    "latitude": 22.705656,
    "longitude": 75.825561,
    "city": "Indore",
    "state": "Madhya Pradesh",
    "source": "osm",
    "address": "Chandan Nagar Square, Indore, Madhya Pradesh"
  },
  {
    "id": "cng-d24961c4",
    "name": "Shakti Fuel Station",
    "latitude": 22.689488,
    "longitude": 75.887981,
    "city": "Indore",
    "state": "Madhya Pradesh",
    "source": "osm",
    "address": "Teen Imli,, Indore, Madhya Pradesh"
  },
  {
    "id": "cng-a5b67b4f",
    "name": "Indian Auto Gas",
    "latitude": 21.18139,
    "longitude": 79.038446,
    "city": "Nagpur",
    "state": "Madhya Pradesh",
    "source": "osm",
    "address": "Katol Road, Nagpur, Madhya Pradesh"
  },
  {
    "id": "cng-25440afb",
    "name": "Adani Electricity Gol Mahal Substation",
    "latitude": 19.04772,
    "longitude": 72.820122,
    "city": "",
    "state": "Maharashtra",
    "source": "osm",
    "address": "Maharashtra",
    "operator": "Adani"
  },
  {
    "id": "cng-e6572a97",
    "name": "Bharat Petroleum",
    "latitude": 18.482702,
    "longitude": 73.826623,
    "city": "",
    "state": "Maharashtra",
    "source": "osm",
    "address": "Survey No. 19/3, Sinhagad Road, Maharashtra"
  },
  {
    "id": "cng-4d70e971",
    "name": "Bharat Petroleum",
    "latitude": 18.639387,
    "longitude": 73.738335,
    "city": "",
    "state": "Maharashtra",
    "source": "osm",
    "address": "Maharashtra"
  },
  {
    "id": "cng-e7ca55bc",
    "name": "Bharat Petroleum",
    "latitude": 19.302918,
    "longitude": 74.170591,
    "city": "",
    "state": "Maharashtra",
    "source": "osm",
    "address": "Pune - Nashik Highway, Maharashtra"
  },
  {
    "id": "cng-06914b08",
    "name": "Bharat Petroleum",
    "latitude": 20.220063,
    "longitude": 79.018915,
    "city": "",
    "state": "Maharashtra",
    "source": "osm",
    "address": "Maharashtra"
  },
  {
    "id": "cng-71c16953",
    "name": "Bpcl Cng Station",
    "latitude": 18.59839,
    "longitude": 73.82819,
    "city": "",
    "state": "Maharashtra",
    "source": "osm",
    "address": "Maharashtra",
    "operator": "BPCL"
  },
  {
    "id": "cng-0d3a87cf",
    "name": "Bpcl Fuel Pump",
    "latitude": 19.214938,
    "longitude": 72.977444,
    "city": "",
    "state": "Maharashtra",
    "source": "osm",
    "address": "Maharashtra",
    "operator": "BPCL"
  },
  {
    "id": "cng-e35d6bca",
    "name": "Chikhali Cng Pump",
    "latitude": 18.664245,
    "longitude": 73.826683,
    "city": "",
    "state": "Maharashtra",
    "source": "osm",
    "address": "Maharashtra",
    "operator": "MNGL"
  },
  {
    "id": "cng-a957a737",
    "name": "Cng",
    "latitude": 19.076587,
    "longitude": 72.877234,
    "city": "",
    "state": "Maharashtra",
    "source": "osm",
    "address": "Maharashtra"
  },
  {
    "id": "cng-d0a45fe3",
    "name": "Cng",
    "latitude": 18.630737,
    "longitude": 73.742847,
    "city": "",
    "state": "Maharashtra",
    "source": "osm",
    "address": "Maharashtra"
  },
  {
    "id": "cng-a3de1f1c",
    "name": "Cng Filling Station",
    "latitude": 19.064348,
    "longitude": 72.859997,
    "city": "",
    "state": "Maharashtra",
    "source": "osm",
    "address": "Maharashtra"
  },
  {
    "id": "cng-868a03fc",
    "name": "Cng Station",
    "latitude": 19.213694,
    "longitude": 72.837267,
    "city": "",
    "state": "Maharashtra",
    "source": "osm",
    "address": "Maharashtra"
  },
  {
    "id": "cng-db8eac06",
    "name": "Cng Station",
    "latitude": 19.046782,
    "longitude": 72.878713,
    "city": "",
    "state": "Maharashtra",
    "source": "osm",
    "address": "Sewri-Chembur Road, Maharashtra"
  },
  {
    "id": "cng-9a1f3f7e",
    "name": "Cng Station",
    "latitude": 18.738315,
    "longitude": 73.857687,
    "city": "",
    "state": "Maharashtra",
    "source": "osm",
    "address": "Maharashtra"
  },
  {
    "id": "cng-96b03cd0",
    "name": "Cng Station",
    "latitude": 18.985254,
    "longitude": 72.830855,
    "city": "",
    "state": "Maharashtra",
    "source": "osm",
    "address": "Maharashtra"
  },
  {
    "id": "cng-814819b6",
    "name": "Cng Station",
    "latitude": 19.08307,
    "longitude": 73.001215,
    "city": "",
    "state": "Maharashtra",
    "source": "osm",
    "address": "Maharashtra"
  },
  {
    "id": "cng-bfab9ae3",
    "name": "Cng Station",
    "latitude": 19.011981,
    "longitude": 73.035811,
    "city": "",
    "state": "Maharashtra",
    "source": "osm",
    "address": "Maharashtra"
  },
  {
    "id": "cng-07c93238",
    "name": "Cng Station",
    "latitude": 19.044543,
    "longitude": 72.916476,
    "city": "",
    "state": "Maharashtra",
    "source": "osm",
    "address": "Maharashtra"
  },
  {
    "id": "cng-663c2101",
    "name": "Cng Station",
    "latitude": 18.677292,
    "longitude": 73.859805,
    "city": "",
    "state": "Maharashtra",
    "source": "osm",
    "address": "Dehu - Alandi Road, Maharashtra"
  },
  {
    "id": "cng-65b61621",
    "name": "Cng Station",
    "latitude": 19.175557,
    "longitude": 72.864375,
    "city": "",
    "state": "Maharashtra",
    "source": "osm",
    "address": "Maharashtra"
  },
  {
    "id": "cng-a4716b9d",
    "name": "Dharmavat Petrol Pump",
    "latitude": 18.448715,
    "longitude": 73.904331,
    "city": "",
    "state": "Maharashtra",
    "source": "osm",
    "address": "Maharashtra"
  },
  {
    "id": "cng-957bc50d",
    "name": "Gaikwad Cng Station",
    "latitude": 18.532322,
    "longitude": 73.931865,
    "city": "",
    "state": "Maharashtra",
    "source": "osm",
    "address": "Maharashtra",
    "operator": "MNGL"
  },
  {
    "id": "cng-02743e36",
    "name": "Hp",
    "latitude": 19.12805,
    "longitude": 72.832203,
    "city": "",
    "state": "Maharashtra",
    "source": "osm",
    "address": "Maharashtra"
  },
  {
    "id": "cng-0d388aeb",
    "name": "Hp",
    "latitude": 18.601196,
    "longitude": 73.754348,
    "city": "",
    "state": "Maharashtra",
    "source": "osm",
    "address": "Maharashtra"
  },
  {
    "id": "cng-0b208f5a",
    "name": "Hp",
    "latitude": 18.628264,
    "longitude": 73.742393,
    "city": "",
    "state": "Maharashtra",
    "source": "osm",
    "address": "Maharashtra"
  },
  {
    "id": "cng-cf861e7a",
    "name": "Hp",
    "latitude": 18.436462,
    "longitude": 73.142262,
    "city": "",
    "state": "Maharashtra",
    "source": "osm",
    "address": "Maharashtra"
  },
  {
    "id": "cng-ef3034a8",
    "name": "Hp Petrol Station",
    "latitude": 18.960853,
    "longitude": 72.832141,
    "city": "",
    "state": "Maharashtra",
    "source": "osm",
    "address": "Maharashtra"
  },
  {
    "id": "cng-7c89718a",
    "name": "Indian Oil",
    "latitude": 19.102374,
    "longitude": 72.919607,
    "city": "",
    "state": "Maharashtra",
    "source": "osm",
    "address": "Maharashtra"
  },
  {
    "id": "cng-acaf47d7",
    "name": "Indian Oil Pump (Cng Available)",
    "latitude": 18.457775,
    "longitude": 73.829162,
    "city": "",
    "state": "Maharashtra",
    "source": "osm",
    "address": "Maharashtra"
  },
  {
    "id": "cng-be6229d2",
    "name": "Lmd Cng",
    "latitude": 18.511266,
    "longitude": 73.77095,
    "city": "",
    "state": "Maharashtra",
    "source": "osm",
    "address": "Maharashtra",
    "operator": "MNGL"
  },
  {
    "id": "cng-2d7614ed",
    "name": "Lotus Petrol Pump",
    "latitude": 19.142679,
    "longitude": 72.831771,
    "city": "",
    "state": "Maharashtra",
    "source": "osm",
    "address": "Maharashtra"
  },
  {
    "id": "cng-10e98894",
    "name": "Mahanagar Cng Station",
    "latitude": 19.034594,
    "longitude": 73.028686,
    "city": "",
    "state": "Maharashtra",
    "source": "osm",
    "address": "Maharashtra"
  },
  {
    "id": "cng-190d47d6",
    "name": "Mahanagar Gas",
    "latitude": 19.063177,
    "longitude": 73.023107,
    "city": "",
    "state": "Maharashtra",
    "source": "osm",
    "address": "Maharashtra"
  },
  {
    "id": "cng-16a02d22",
    "name": "Mahanagar Gas Cng Station",
    "latitude": 19.175428,
    "longitude": 73.002309,
    "city": "",
    "state": "Maharashtra",
    "source": "osm",
    "address": "55, MIDC Road, Maharashtra"
  },
  {
    "id": "cng-bda16e61",
    "name": "Mahanager Gas",
    "latitude": 19.289747,
    "longitude": 72.864608,
    "city": "",
    "state": "Maharashtra",
    "source": "osm",
    "address": "Maharashtra"
  },
  {
    "id": "cng-d9810900",
    "name": "Mgl Cng Station",
    "latitude": 19.118038,
    "longitude": 73.006688,
    "city": "",
    "state": "Maharashtra",
    "source": "osm",
    "address": "Maharashtra",
    "operator": "MGL"
  },
  {
    "id": "cng-7cfb19b4",
    "name": "Mngl",
    "latitude": 18.663307,
    "longitude": 73.789476,
    "city": "",
    "state": "Maharashtra",
    "source": "osm",
    "address": "Maharashtra",
    "operator": "MNGL"
  },
  {
    "id": "cng-6d371ae8",
    "name": "Mngl Cng",
    "latitude": 18.585025,
    "longitude": 73.833023,
    "city": "",
    "state": "Maharashtra",
    "source": "osm",
    "address": "Maharashtra",
    "operator": "MNGL"
  },
  {
    "id": "cng-31f5af9e",
    "name": "Mngl Cng Pump",
    "latitude": 18.534183,
    "longitude": 73.847651,
    "city": "",
    "state": "Maharashtra",
    "source": "osm",
    "address": "Maharashtra",
    "operator": "MNGL"
  },
  {
    "id": "cng-bb403eeb",
    "name": "Mngl Cng Pump",
    "latitude": 18.603147,
    "longitude": 73.746881,
    "city": "",
    "state": "Maharashtra",
    "source": "osm",
    "address": "Maharashtra",
    "operator": "MNGL"
  },
  {
    "id": "cng-1a02ed2c",
    "name": "National Highway Trucking Centre",
    "latitude": 19.067743,
    "longitude": 72.900328,
    "city": "",
    "state": "Maharashtra",
    "source": "osm",
    "address": "Maharashtra"
  },
  {
    "id": "cng-2862e2ee",
    "name": "Sk Cng Gas Station",
    "latitude": 19.149027,
    "longitude": 72.839974,
    "city": "",
    "state": "Maharashtra",
    "source": "osm",
    "address": "Maharashtra"
  },
  {
    "id": "cng-45ef63b3",
    "name": "Indian Oil Petrol Pump",
    "latitude": 18.624352,
    "longitude": 74.031235,
    "city": "Loni kand",
    "state": "Maharashtra",
    "source": "osm",
    "address": "Gat no.11, Loni kand, Maharashtra"
  },
  {
    "id": "cng-41574375",
    "name": "Bharat Petroleum",
    "latitude": 19.274638,
    "longitude": 72.887167,
    "city": "Mira Road East, Thane",
    "state": "Maharashtra",
    "source": "osm",
    "address": "NH 8, Kashigaon, Mira Road East, Thane, Maharashtra"
  },
  {
    "id": "cng-d0bafc52",
    "name": "Bharat Petroleum",
    "latitude": 19.271645,
    "longitude": 72.881271,
    "city": "Mira Road East, Thane",
    "state": "Maharashtra",
    "source": "osm",
    "address": "NH 8, AG Nagar, Kashimira, Mira Road East, Thane, Maharashtra"
  },
  {
    "id": "cng-0b94548f",
    "name": "Cng",
    "latitude": 19.252359,
    "longitude": 74.00155,
    "city": "Otur",
    "state": "Maharashtra",
    "source": "osm",
    "address": "College Road, Otur, Maharashtra"
  },
  {
    "id": "cng-d0d85606",
    "name": "Cng Petrol Pump",
    "latitude": 18.59217,
    "longitude": 73.803749,
    "city": "PUNE",
    "state": "Maharashtra",
    "source": "osm",
    "address": "KATE VASTI, PUNE, Maharashtra"
  },
  {
    "id": "cng-c8ec5054",
    "name": "Indian Oil Petrol Cng Pump",
    "latitude": 18.569502,
    "longitude": 73.817207,
    "city": "Pimpri Chinchwad",
    "state": "Maharashtra",
    "source": "osm",
    "address": "Pimpri Chinchwad, Maharashtra"
  },
  {
    "id": "cng-7233b7ef",
    "name": "Chandere Cng Station",
    "latitude": 18.552645,
    "longitude": 73.75749,
    "city": "Pune",
    "state": "Maharashtra",
    "source": "osm",
    "address": "sus, Sus Road, Pune, Maharashtra",
    "operator": "MNGL"
  },
  {
    "id": "cng-1997222e",
    "name": "Kedari Petrol Pump",
    "latitude": 18.486548,
    "longitude": 73.898661,
    "city": "Pune",
    "state": "Maharashtra",
    "source": "osm",
    "address": "Vitthal Shivarkar Marg, Pune, Maharashtra"
  },
  {
    "id": "cng-c0856f52",
    "name": "Pimple Nilakh Cng Pump",
    "latitude": 18.566694,
    "longitude": 73.792555,
    "city": "Pune",
    "state": "Maharashtra",
    "source": "osm",
    "address": "Pune, Maharashtra",
    "operator": "MNGL"
  },
  {
    "id": "cng-7984952c",
    "name": "Rathi Cng Gas Station",
    "latitude": 18.453989,
    "longitude": 73.853487,
    "city": "Pune",
    "state": "Maharashtra",
    "source": "osm",
    "address": "bharti vidyapeeth road, katraj, Pune, Maharashtra"
  },
  {
    "id": "cng-9c7d7ba4",
    "name": "Cng Pump",
    "latitude": 18.646833,
    "longitude": 73.742276,
    "city": "Ravet",
    "state": "Maharashtra",
    "source": "osm",
    "address": "Ravet, Maharashtra"
  },
  {
    "id": "cng-d8ed6b46",
    "name": "M/S B B Kolpe Petroleum Cng Pump",
    "latitude": 19.88672,
    "longitude": 74.349255,
    "city": "Shahajapur",
    "state": "Maharashtra",
    "source": "osm",
    "address": "Shirdi - Lasalgaon Rd, Shahajapur, Maharashtra"
  },
  {
    "id": "cng-913f93a1",
    "name": "Hp",
    "latitude": 15.871067,
    "longitude": 73.646079,
    "city": "Vengurla",
    "state": "Maharashtra",
    "source": "osm",
    "address": "Vengurla, Maharashtra"
  },
  {
    "id": "cng-aa7ffb87",
    "name": "Indian Oil Petrol Pump",
    "latitude": 18.580337,
    "longitude": 73.975254,
    "city": "Wagholi",
    "state": "Maharashtra",
    "source": "osm",
    "address": "Nagar Road, Wagholi, Maharashtra"
  },
  {
    "id": "cng-22b4ad6a",
    "name": "Cng Station",
    "latitude": 18.637415,
    "longitude": 73.849217,
    "city": "pune",
    "state": "Maharashtra",
    "source": "osm",
    "address": "pune, Maharashtra"
  },
  {
    "id": "cng-a467d0e5",
    "name": "Gail Cng Filling Station",
    "latitude": 20.476489,
    "longitude": 85.820261,
    "city": "",
    "state": "Odisha",
    "source": "osm",
    "address": "Odisha",
    "operator": "GAIL"
  },
  {
    "id": "cng-0148947a",
    "name": "Gail Gas Station",
    "latitude": 20.444575,
    "longitude": 85.945404,
    "city": "",
    "state": "Odisha",
    "source": "osm",
    "address": "Odisha",
    "operator": "GAIL"
  },
  {
    "id": "cng-c1ae1fcf",
    "name": "Dhabaleswar Filling Station",
    "latitude": 20.550833,
    "longitude": 86.329324,
    "city": "Chhata",
    "state": "Odisha",
    "source": "osm_extra",
    "operator": "Private"
  },
  {
    "id": "cng-e0353eda",
    "name": "Bharat Petroleum",
    "latitude": 20.320867,
    "longitude": 86.550183,
    "city": "Paradeep",
    "state": "Odisha",
    "source": "osm_extra",
    "operator": "Private"
  },
  {
    "id": "cng-3df4335d",
    "name": "Private Cng Station",
    "latitude": 20.30881,
    "longitude": 86.630486,
    "city": "Paradeep",
    "state": "Odisha",
    "source": "osm_extra",
    "operator": "Private"
  },
  {
    "id": "cng-117c1c98",
    "name": "Bharat Petroleum",
    "latitude": 31.60096,
    "longitude": 76.17792,
    "city": "",
    "state": "Punjab",
    "source": "osm",
    "address": "Punjab"
  },
  {
    "id": "cng-77781121",
    "name": "Bharat Petroleum",
    "latitude": 31.389969,
    "longitude": 76.344562,
    "city": "",
    "state": "Punjab",
    "source": "osm",
    "address": "Punjab"
  },
  {
    "id": "cng-3c9612a9",
    "name": "Chaudhary Fuel Point",
    "latitude": 31.350737,
    "longitude": 76.387524,
    "city": "",
    "state": "Punjab",
    "source": "osm",
    "address": "Punjab"
  },
  {
    "id": "cng-77577dfd",
    "name": "Cng Station",
    "latitude": 30.89107,
    "longitude": 75.80206,
    "city": "",
    "state": "Punjab",
    "source": "osm",
    "address": "Punjab"
  },
  {
    "id": "cng-1779d1fd",
    "name": "Sarpanch Petro Service",
    "latitude": 30.50516,
    "longitude": 74.858002,
    "city": "",
    "state": "Punjab",
    "source": "osm",
    "address": "Jaito- Bathinda Road, Punjab"
  },
  {
    "id": "cng-26101335",
    "name": "Grand Filling Petrol & Cng Station",
    "latitude": 30.289477,
    "longitude": 76.348328,
    "city": "Sher Majra",
    "state": "Punjab",
    "source": "osm",
    "address": "Sher Majra, Punjab"
  },
  {
    "id": "cng-61f2e1ff",
    "name": "Bps Cng Filling Station",
    "latitude": 26.951767,
    "longitude": 75.761222,
    "city": "",
    "state": "Rajasthan",
    "source": "osm",
    "address": "Rajasthan"
  },
  {
    "id": "cng-c6c99b9a",
    "name": "Cng Pump Sheshma Indian Oil Filling Station",
    "latitude": 27.637419,
    "longitude": 75.211952,
    "city": "",
    "state": "Rajasthan",
    "source": "osm",
    "address": "Rajasthan"
  },
  {
    "id": "cng-58f08575",
    "name": "Shaheed Ganpat Singh Dhaka Filling Station",
    "latitude": 27.579523,
    "longitude": 75.199165,
    "city": "Sikar",
    "state": "Rajasthan",
    "source": "osm",
    "address": "Sikar, Rajasthan"
  },
  {
    "id": "cng-75237c15",
    "name": "Bharat Petroleum",
    "latitude": 13.136912,
    "longitude": 77.56853,
    "city": "",
    "state": "Tamil Nadu",
    "source": "osm",
    "address": "Tamil Nadu"
  },
  {
    "id": "cng-2b11f66e",
    "name": "Classic Auto Gas",
    "latitude": 12.930966,
    "longitude": 77.600462,
    "city": "",
    "state": "Tamil Nadu",
    "source": "osm",
    "address": "Tamil Nadu"
  },
  {
    "id": "cng-7dc330ec",
    "name": "Cng Station",
    "latitude": 13.165368,
    "longitude": 77.62915,
    "city": "",
    "state": "Tamil Nadu",
    "source": "osm",
    "address": "Tamil Nadu"
  },
  {
    "id": "cng-67940599",
    "name": "Gail",
    "latitude": 13.154663,
    "longitude": 77.685089,
    "city": "",
    "state": "Tamil Nadu",
    "source": "osm",
    "address": "Tamil Nadu",
    "operator": "GAIL"
  },
  {
    "id": "cng-0dd8901b",
    "name": "Gail",
    "latitude": 12.996147,
    "longitude": 77.519409,
    "city": "",
    "state": "Tamil Nadu",
    "source": "osm",
    "address": "Tamil Nadu",
    "operator": "GAIL"
  },
  {
    "id": "cng-4d230856",
    "name": "Gail",
    "latitude": 12.889281,
    "longitude": 77.437879,
    "city": "",
    "state": "Tamil Nadu",
    "source": "osm",
    "address": "Tamil Nadu",
    "operator": "GAIL"
  },
  {
    "id": "cng-3e095180",
    "name": "Gail Cng",
    "latitude": 12.873365,
    "longitude": 77.540406,
    "city": "",
    "state": "Tamil Nadu",
    "source": "osm",
    "address": "Tamil Nadu",
    "operator": "GAIL"
  },
  {
    "id": "cng-fae7825d",
    "name": "Gail Cng Station",
    "latitude": 12.947388,
    "longitude": 77.5797,
    "city": "",
    "state": "Tamil Nadu",
    "source": "osm",
    "address": "Tamil Nadu",
    "operator": "GAIL"
  },
  {
    "id": "cng-7020f496",
    "name": "Gail Cng Station",
    "latitude": 13.057551,
    "longitude": 77.546644,
    "city": "",
    "state": "Tamil Nadu",
    "source": "osm",
    "address": "Tamil Nadu",
    "operator": "GAIL"
  },
  {
    "id": "cng-beef8f1f",
    "name": "Gail Cng Station",
    "latitude": 12.871422,
    "longitude": 77.58346,
    "city": "",
    "state": "Tamil Nadu",
    "source": "osm",
    "address": "Tamil Nadu",
    "operator": "GAIL"
  },
  {
    "id": "cng-4cde4465",
    "name": "Gail Gas",
    "latitude": 13.031118,
    "longitude": 77.6302,
    "city": "",
    "state": "Tamil Nadu",
    "source": "osm",
    "address": "Tamil Nadu",
    "operator": "GAIL"
  },
  {
    "id": "cng-458c4548",
    "name": "Gail Gas",
    "latitude": 13.040554,
    "longitude": 77.61859,
    "city": "",
    "state": "Tamil Nadu",
    "source": "osm",
    "address": "Tamil Nadu",
    "operator": "GAIL"
  },
  {
    "id": "cng-b1562bdd",
    "name": "Gail Gas",
    "latitude": 12.946892,
    "longitude": 77.746957,
    "city": "",
    "state": "Tamil Nadu",
    "source": "osm",
    "address": "Tamil Nadu",
    "operator": "GAIL"
  },
  {
    "id": "cng-ef96edf1",
    "name": "Gail Gas",
    "latitude": 13.010298,
    "longitude": 77.681117,
    "city": "",
    "state": "Tamil Nadu",
    "source": "osm",
    "address": "Tamil Nadu",
    "operator": "GAIL"
  },
  {
    "id": "cng-538c71c4",
    "name": "Gail Gas Cng Station",
    "latitude": 13.153425,
    "longitude": 77.728555,
    "city": "",
    "state": "Tamil Nadu",
    "source": "osm",
    "address": "Tamil Nadu",
    "operator": "GAIL"
  },
  {
    "id": "cng-128a1b81",
    "name": "Gail Gas Cng Station",
    "latitude": 13.005028,
    "longitude": 77.685633,
    "city": "",
    "state": "Tamil Nadu",
    "source": "osm",
    "address": "Tamil Nadu",
    "operator": "GAIL"
  },
  {
    "id": "cng-8a7bd1e2",
    "name": "Go Gas",
    "latitude": 13.039379,
    "longitude": 77.596215,
    "city": "",
    "state": "Tamil Nadu",
    "source": "osm",
    "address": "Tamil Nadu"
  },
  {
    "id": "cng-e3f064f7",
    "name": "Indian Auto Gas",
    "latitude": 12.951109,
    "longitude": 77.745369,
    "city": "",
    "state": "Tamil Nadu",
    "source": "osm",
    "address": "Tamil Nadu"
  },
  {
    "id": "cng-37051d52",
    "name": "Indian Oil",
    "latitude": 12.94525,
    "longitude": 77.618989,
    "city": "",
    "state": "Tamil Nadu",
    "source": "osm",
    "address": "Tamil Nadu"
  },
  {
    "id": "cng-3368ef63",
    "name": "Indian Oil",
    "latitude": 10.808269,
    "longitude": 78.681486,
    "city": "",
    "state": "Tamil Nadu",
    "source": "osm",
    "address": "Tamil Nadu"
  },
  {
    "id": "cng-65531870",
    "name": "Indian Oil",
    "latitude": 9.927171,
    "longitude": 78.099966,
    "city": "",
    "state": "Tamil Nadu",
    "source": "osm",
    "address": "Tamil Nadu"
  },
  {
    "id": "cng-afb43703",
    "name": "Indian Oil",
    "latitude": 12.904067,
    "longitude": 77.746729,
    "city": "",
    "state": "Tamil Nadu",
    "source": "osm",
    "address": "Tamil Nadu"
  },
  {
    "id": "cng-2a0bdb4b",
    "name": "Petronas",
    "latitude": 12.923889,
    "longitude": 77.640766,
    "city": "",
    "state": "Tamil Nadu",
    "source": "osm",
    "address": "Tamil Nadu"
  },
  {
    "id": "cng-42baa0be",
    "name": "Petronas Cng Gas Station",
    "latitude": 12.98575,
    "longitude": 77.479754,
    "city": "",
    "state": "Tamil Nadu",
    "source": "osm",
    "address": "Magadi Road, Tamil Nadu"
  },
  {
    "id": "cng-78484eff",
    "name": "Totalgaz",
    "latitude": 12.921376,
    "longitude": 77.600434,
    "city": "",
    "state": "Tamil Nadu",
    "source": "osm",
    "address": "Tamil Nadu"
  },
  {
    "id": "cng-2d076ee7",
    "name": "Bharat Petroleum",
    "latitude": 17.43979,
    "longitude": 78.508904,
    "city": "",
    "state": "Telangana",
    "source": "osm",
    "address": "Telangana"
  },
  {
    "id": "cng-bc60fc84",
    "name": "Extra Gas",
    "latitude": 17.394349,
    "longitude": 78.470062,
    "city": "",
    "state": "Telangana",
    "source": "osm",
    "address": "Telangana"
  },
  {
    "id": "cng-b6ba2aca",
    "name": "Indian Oil",
    "latitude": 18.879215,
    "longitude": 77.176431,
    "city": "kandhar",
    "state": "Telangana",
    "source": "osm",
    "address": "kandhar, Telangana"
  },
  {
    "id": "cng-e7c4f0c5",
    "name": "Bharat Petroleum",
    "latitude": 27.218283,
    "longitude": 78.099432,
    "city": "",
    "state": "Uttar Pradesh",
    "source": "osm",
    "address": "Uttar Pradesh"
  },
  {
    "id": "cng-b945f49f",
    "name": "Cng Indian Oil",
    "latitude": 26.899998,
    "longitude": 81.333787,
    "city": "",
    "state": "Uttar Pradesh",
    "source": "osm",
    "address": "Uttar Pradesh"
  },
  {
    "id": "cng-c6b10cd2",
    "name": "Gail India Ltd. Cng Station",
    "latitude": 25.286496,
    "longitude": 82.968651,
    "city": "",
    "state": "Uttar Pradesh",
    "source": "osm",
    "address": "Uttar Pradesh",
    "operator": "GAIL"
  },
  {
    "id": "cng-0f43a8a9",
    "name": "Igl",
    "latitude": 28.613825,
    "longitude": 77.610141,
    "city": "",
    "state": "Uttar Pradesh",
    "source": "osm",
    "address": "Uttar Pradesh",
    "operator": "IGL"
  },
  {
    "id": "cng-aeacd7e8",
    "name": "Igl-Cng Station",
    "latitude": 28.446122,
    "longitude": 77.543288,
    "city": "",
    "state": "Uttar Pradesh",
    "source": "osm",
    "address": "Uttar Pradesh",
    "operator": "IGL"
  },
  {
    "id": "cng-010cef85",
    "name": "Indian Oil",
    "latitude": 28.385759,
    "longitude": 79.435676,
    "city": "",
    "state": "Uttar Pradesh",
    "source": "osm",
    "address": "Uttar Pradesh"
  },
  {
    "id": "cng-bfeae735",
    "name": "Indian Oil",
    "latitude": 28.375683,
    "longitude": 79.43336,
    "city": "",
    "state": "Uttar Pradesh",
    "source": "osm",
    "address": "Uttar Pradesh"
  },
  {
    "id": "cng-17c34dee",
    "name": "Bharat Petroleum",
    "latitude": 26.220671,
    "longitude": 81.255182,
    "city": "Raebareli",
    "state": "Uttar Pradesh",
    "source": "osm",
    "address": "Lucknow Road, Raebareli, Uttar Pradesh"
  },
  {
    "id": "cng-a7944781",
    "name": "Indianoil",
    "latitude": 24.542602,
    "longitude": 81.292618,
    "city": "Rewa",
    "state": "Uttar Pradesh",
    "source": "osm",
    "address": "Old Bus Stand Road, Rewa, Uttar Pradesh"
  },
  {
    "id": "cng-988e7671",
    "name": "Gail Gas",
    "latitude": 28.940541,
    "longitude": 77.774445,
    "city": "",
    "state": "Uttarakhand",
    "source": "osm",
    "address": "Uttarakhand",
    "operator": "GAIL"
  },
  {
    "id": "cng-9e6fc83b",
    "name": "Igl",
    "latitude": 29.400173,
    "longitude": 77.700106,
    "city": "",
    "state": "Uttarakhand",
    "source": "osm",
    "address": "Uttarakhand",
    "operator": "IGL"
  },
  {
    "id": "cng-b29b6fa1",
    "name": "Indian Oil",
    "latitude": 28.98893,
    "longitude": 79.399639,
    "city": "",
    "state": "Uttarakhand",
    "source": "osm",
    "address": "Uttarakhand"
  }
]
