[
  {
    "id": "cng-6eea61dd",
    "name": "Bharat Petroleum",
    "latitude": 27.334352,
    "longitude": 96.047386,
    "city": "",
    "state": "Arunachal Pradesh",
    "source": "all_india_fuel"
  },
  {
    "id": "cng-b360fdbf",
    "name": "Bharat Petroleum",
    "latitude": 26.704847,
    "longitude": 92.529511,
    "city": "",
    "state": "Arunachal Pradesh",
    "source": "all_india_fuel"
  },
  {
    "id": "cng-7ad01955",
    "name": "Bharat Petroleum",
    "latitude": 27.24367,
    "longitude": 94.01737,
    "city": "",
    "state": "Arunachal Pradesh",
    "source": "all_india_fuel"
  },
  {
    "id": "cng-52e6fa7d",
    "name": "Essar",
    "latitude": 26.700806,
    "longitude": 92.232572,
    "city": "",
    "state": "Arunachal Pradesh",
    "source": "all_india_fuel"
  },
  {
    "id": "cng-d5c5ce3b",
    "name": "Indian Oil",
    "latitude": 27.353442,
    "longitude": 95.316057,
    "city": "",
    "state": "Arunachal Pradesh",
    "source": "all_india_fuel"
  },
  {
    "id": "cng-d6648e7b",
    "name": "Indian Oil",
    "latitude": 26.703583,
    "longitude": 92.476417,
    "city": "",
    "state": "Arunachal Pradesh",
    "source": "all_india_fuel"
  },
  {
    "id": "cng-4bb89a1e",
    "name": "Indian Oil",
    "latitude": 26.702036,
    "longitude": 92.43607,
    "city": "",
    "state": "Arunachal Pradesh",
    "source": "all_india_fuel"
  },
  {
    "id": "cng-b9c84a27",
    "name": "Indian Oil",
    "latitude": 26.706148,
    "longitude": 92.499938,
    "city": "",
    "state": "Arunachal Pradesh",
    "source": "all_india_fuel"
  },
  {
    "id": "cng-3e467b49",
    "name": "Indian Oil",
    "latitude": 27.30411,
    "longitude": 93.969945,
    "city": "",
    "state": "Arunachal Pradesh",
    "source": "all_india_fuel"
  },
  {
    "id": "cng-ff6b0124",
    "name": "Indian Oil",
    "latitude": 27.659622,
    "longitude": 94.704521,
    "city": "",
    "state": "Arunachal Pradesh",
    "source": "all_india_fuel"
  },
  {
    "id": "cng-8b2535c8",
    "name": "Indian Oil",
    "latitude": 28.791767,
    "longitude": 95.897571,
    "city": "",
    "state": "Arunachal Pradesh",
    "source": "all_india_fuel"
  },
  {
    "id": "cng-e1a047fa",
    "name": "Indian Oil Gas Station",
    "latitude": 27.482595,
    "longitude": 95.342976,
    "city": "",
    "state": "Arunachal Pradesh",
    "source": "all_india_fuel"
  },
  {
    "id": "cng-a2447676",
    "name": "Indian Oil Khonsa",
    "latitude": 26.991885,
    "longitude": 95.509115,
    "city": "",
    "state": "Arunachal Pradesh",
    "source": "all_india_fuel"
  },
  {
    "id": "cng-b6e54d64",
    "name": "Cng Station",
    "latitude": 27.455757,
    "longitude": 95.010053,
    "city": "Dibrugarh",
    "state": "Arunachal Pradesh",
    "source": "cgd_inferred"
  },
  {
    "id": "cng-11b3e8a1",
    "name": "Indian Oil",
    "latitude": 27.479355,
    "longitude": 94.932876,
    "city": "Dibrugarh",
    "state": "Arunachal Pradesh",
    "source": "cgd_inferred"
  },
  {
    "id": "cng-6908936c",
    "name": "Bharat Petroleum",
    "latitude": 27.348606,
    "longitude": 95.317348,
    "city": "Duliajan",
    "state": "Arunachal Pradesh",
    "source": "all_india_fuel"
  },
  {
    "id": "cng-5756a552",
    "name": "Indian Oil",
    "latitude": 27.229236,
    "longitude": 94.095967,
    "city": "Lakhimpur",
    "state": "Arunachal Pradesh",
    "source": "cgd_inferred"
  },
  {
    "id": "cng-e4f524c9",
    "name": "Nayara Gas Station",
    "latitude": 27.223682,
    "longitude": 94.105891,
    "city": "Lakhimpur",
    "state": "Arunachal Pradesh",
    "source": "cgd_inferred"
  },
  {
    "id": "cng-ebca9175",
    "name": "Indian Oil",
    "latitude": 26.729901,
    "longitude": 92.942829,
    "city": "Tezpur",
    "state": "Arunachal Pradesh",
    "source": "cgd_inferred"
  }
]
