[
  {
    "id": "cng-b6e54d64",
    "name": "Cng Station",
    "latitude": 27.455757,
    "longitude": 95.010053,
    "city": "Dibrugarh",
    "state": "Arunachal Pradesh",
    "source": "cgd_inferred"
  },
  {
    "id": "cng-11b3e8a1",
    "name": "Indian Oil",
    "latitude": 27.479355,
    "longitude": 94.932876,
    "city": "Dibrugarh",
    "state": "Arunachal Pradesh",
    "source": "cgd_inferred"
  },
  {
    "id": "cng-5756a552",
    "name": "Indian Oil",
    "latitude": 27.229236,
    "longitude": 94.095967,
    "city": "Lakhimpur",
    "state": "Arunachal Pradesh",
    "source": "cgd_inferred"
  },
  {
    "id": "cng-e4f524c9",
    "name": "Nayara Gas Station",
    "latitude": 27.223682,
    "longitude": 94.105891,
    "city": "Lakhimpur",
    "state": "Arunachal Pradesh",
    "source": "cgd_inferred"
  },
  {
    "id": "cng-ebca9175",
    "name": "Indian Oil",
    "latitude": 26.729901,
    "longitude": 92.942829,
    "city": "Tezpur",
    "state": "Arunachal Pradesh",
    "source": "cgd_inferred"
  }
]
