[
  {
    "id": "cng-d431bc69",
    "name": "Hazrat Raypuri Cng Filling Station, Gas Station",
    "latitude": 24.84527,
    "longitude": 92.160808,
    "city": "Bairagibazar",
    "state": "Assam",
    "source": "osm_allstations"
  },
  {
    "id": "cng-9481cc59",
    "name": "Noorjahan Cng Filling Station",
    "latitude": 24.865634,
    "longitude": 92.02555,
    "city": "Barokut",
    "state": "Assam",
    "source": "osm_allstations"
  },
  {
    "id": "cng-5837e06d",
    "name": "Sns Cng Station Haker Pin এসএনএস সিএনজি সটেশন কার পিন",
    "latitude": 24.423988,
    "longitude": 90.388153,
    "city": "Bharadhoba",
    "state": "Assam",
    "source": "osm_allstations"
  },
  {
    "id": "cng-23eb736f",
    "name": "Cng Station",
    "latitude": 26.489604,
    "longitude": 90.618064,
    "city": "Bongaigaon",
    "state": "Assam",
    "source": "cgd_inferred"
  },
  {
    "id": "cng-b8d47101",
    "name": "Cng Station",
    "latitude": 26.503607,
    "longitude": 90.697597,
    "city": "Bongaigaon",
    "state": "Assam",
    "source": "cgd_inferred"
  },
  {
    "id": "cng-ae15583a",
    "name": "A.R. Khan Pathan Cng And Filling Station",
    "latitude": 24.872061,
    "longitude": 90.717465,
    "city": "Challisha",
    "state": "Assam",
    "source": "osm_allstations"
  },
  {
    "id": "cng-7168b8a5",
    "name": "Mymensingh Cng Auto-Rickshaw Station",
    "latitude": 24.74761,
    "longitude": 90.421016,
    "city": "Char Ishwardia",
    "state": "Assam",
    "source": "osm_allstations"
  },
  {
    "id": "cng-06b17e91",
    "name": "Cng Station",
    "latitude": 26.127117,
    "longitude": 90.569513,
    "city": "Goalpara",
    "state": "Assam",
    "source": "cgd_inferred"
  },
  {
    "id": "cng-6ed8b4bd",
    "name": "Assam Oil",
    "latitude": 26.227571,
    "longitude": 91.696666,
    "city": "Guwahati",
    "state": "Assam",
    "source": "cgd_inferred"
  },
  {
    "id": "cng-0f21bcac",
    "name": "Bharat Petroleum",
    "latitude": 26.112156,
    "longitude": 91.745933,
    "city": "Guwahati",
    "state": "Assam",
    "source": "cgd_inferred"
  },
  {
    "id": "cng-16ef8917",
    "name": "Bharat Petroleum Jatia",
    "latitude": 26.144391,
    "longitude": 91.778884,
    "city": "Guwahati",
    "state": "Assam",
    "source": "cgd_inferred"
  },
  {
    "id": "cng-e749a391",
    "name": "Bora Service Station",
    "latitude": 26.170204,
    "longitude": 91.763125,
    "city": "Guwahati",
    "state": "Assam",
    "source": "cgd_inferred"
  },
  {
    "id": "cng-30d4d7a8",
    "name": "Bp",
    "latitude": 26.138927,
    "longitude": 91.613637,
    "city": "Guwahati",
    "state": "Assam",
    "source": "cgd_inferred"
  },
  {
    "id": "cng-5daf8d8d",
    "name": "Cng Station",
    "latitude": 26.185433,
    "longitude": 91.753903,
    "city": "Guwahati",
    "state": "Assam",
    "source": "cgd_inferred"
  },
  {
    "id": "cng-030b9d8f",
    "name": "Cng Station",
    "latitude": 26.116546,
    "longitude": 91.797753,
    "city": "Guwahati",
    "state": "Assam",
    "source": "cgd_inferred"
  },
  {
    "id": "cng-cbc46f4c",
    "name": "Cng Station",
    "latitude": 26.120689,
    "longitude": 91.798104,
    "city": "Guwahati",
    "state": "Assam",
    "source": "cgd_inferred"
  },
  {
    "id": "cng-55bd971f",
    "name": "Cng Station",
    "latitude": 26.173939,
    "longitude": 91.772538,
    "city": "Guwahati",
    "state": "Assam",
    "source": "cgd_inferred"
  },
  {
    "id": "cng-9356ab6e",
    "name": "Cng Station",
    "latitude": 26.159053,
    "longitude": 91.781878,
    "city": "Guwahati",
    "state": "Assam",
    "source": "cgd_inferred"
  },
  {
    "id": "cng-2c67c034",
    "name": "Cng Station",
    "latitude": 26.115383,
    "longitude": 91.723893,
    "city": "Guwahati",
    "state": "Assam",
    "source": "cgd_inferred"
  },
  {
    "id": "cng-de07c58a",
    "name": "Hindustan Oil",
    "latitude": 26.114348,
    "longitude": 91.804824,
    "city": "Guwahati",
    "state": "Assam",
    "source": "cgd_inferred"
  },
  {
    "id": "cng-63de9225",
    "name": "Hindustan Petroleum",
    "latitude": 26.208197,
    "longitude": 91.680065,
    "city": "Guwahati",
    "state": "Assam",
    "source": "cgd_inferred"
  },
  {
    "id": "cng-68e739c5",
    "name": "Hindustan Petroleum",
    "latitude": 26.161022,
    "longitude": 91.709909,
    "city": "Guwahati",
    "state": "Assam",
    "source": "cgd_inferred"
  },
  {
    "id": "cng-b17dd03d",
    "name": "Hp",
    "latitude": 26.158123,
    "longitude": 91.681707,
    "city": "Guwahati",
    "state": "Assam",
    "source": "cgd_inferred"
  },
  {
    "id": "cng-9f6299b5",
    "name": "Hp",
    "latitude": 26.178862,
    "longitude": 91.819965,
    "city": "Guwahati",
    "state": "Assam",
    "source": "cgd_inferred"
  },
  {
    "id": "cng-365694af",
    "name": "Hp",
    "latitude": 26.184807,
    "longitude": 91.766306,
    "city": "Guwahati",
    "state": "Assam",
    "source": "cgd_inferred"
  },
  {
    "id": "cng-0001f442",
    "name": "Indian Oil",
    "latitude": 26.171377,
    "longitude": 91.725758,
    "city": "Guwahati",
    "state": "Assam",
    "source": "cgd_inferred"
  },
  {
    "id": "cng-ae7bb9a5",
    "name": "Indian Oil",
    "latitude": 26.136099,
    "longitude": 91.801871,
    "city": "Guwahati",
    "state": "Assam",
    "source": "cgd_inferred"
  },
  {
    "id": "cng-34e65223",
    "name": "Indian Oil",
    "latitude": 26.110548,
    "longitude": 91.840239,
    "city": "Guwahati",
    "state": "Assam",
    "source": "cgd_inferred"
  },
  {
    "id": "cng-d046d9e6",
    "name": "Indian Oil",
    "latitude": 26.125744,
    "longitude": 91.618799,
    "city": "Guwahati",
    "state": "Assam",
    "source": "cgd_inferred"
  },
  {
    "id": "cng-3310a9bb",
    "name": "Indian Oil",
    "latitude": 26.217196,
    "longitude": 91.696365,
    "city": "Guwahati",
    "state": "Assam",
    "source": "cgd_inferred"
  },
  {
    "id": "cng-3b34703d",
    "name": "Indian Oil",
    "latitude": 26.137425,
    "longitude": 91.633205,
    "city": "Guwahati",
    "state": "Assam",
    "source": "cgd_inferred"
  },
  {
    "id": "cng-455bb908",
    "name": "Indian Oil",
    "latitude": 26.162553,
    "longitude": 91.780565,
    "city": "Guwahati",
    "state": "Assam",
    "source": "cgd_inferred"
  },
  {
    "id": "cng-ce50bc12",
    "name": "Indian Oil",
    "latitude": 26.112734,
    "longitude": 91.799046,
    "city": "Guwahati",
    "state": "Assam",
    "source": "cgd_inferred"
  },
  {
    "id": "cng-47606a3f",
    "name": "Indian Oil",
    "latitude": 26.180556,
    "longitude": 91.746867,
    "city": "Guwahati",
    "state": "Assam",
    "source": "cgd_inferred"
  },
  {
    "id": "cng-4d2f8d26",
    "name": "Indian Oil",
    "latitude": 26.173234,
    "longitude": 91.777406,
    "city": "Guwahati",
    "state": "Assam",
    "source": "cgd_inferred"
  },
  {
    "id": "cng-34353aed",
    "name": "Indian Oil",
    "latitude": 26.174001,
    "longitude": 91.802471,
    "city": "Guwahati",
    "state": "Assam",
    "source": "cgd_inferred"
  },
  {
    "id": "cng-8c83410c",
    "name": "Indian Oil",
    "latitude": 26.185102,
    "longitude": 91.760369,
    "city": "Guwahati",
    "state": "Assam",
    "source": "cgd_inferred"
  },
  {
    "id": "cng-3f44c8a0",
    "name": "Indian Oil",
    "latitude": 26.163027,
    "longitude": 91.770694,
    "city": "Guwahati",
    "state": "Assam",
    "source": "cgd_inferred"
  },
  {
    "id": "cng-e2e9d223",
    "name": "Indian Oil",
    "latitude": 26.135205,
    "longitude": 91.791839,
    "city": "Guwahati",
    "state": "Assam",
    "source": "cgd_inferred"
  },
  {
    "id": "cng-bd448f0b",
    "name": "Indian Oil",
    "latitude": 26.183758,
    "longitude": 91.779268,
    "city": "Guwahati",
    "state": "Assam",
    "source": "cgd_inferred"
  },
  {
    "id": "cng-1c88b9f4",
    "name": "Indian Oil Petrol Pump",
    "latitude": 26.146761,
    "longitude": 91.788796,
    "city": "Guwahati",
    "state": "Assam",
    "source": "cgd_inferred"
  },
  {
    "id": "cng-a7471abe",
    "name": "Io",
    "latitude": 26.13847,
    "longitude": 91.609538,
    "city": "Guwahati",
    "state": "Assam",
    "source": "cgd_inferred"
  },
  {
    "id": "cng-77beee55",
    "name": "Nrl Petrol Pump",
    "latitude": 26.128902,
    "longitude": 91.806387,
    "city": "Guwahati",
    "state": "Assam",
    "source": "cgd_inferred"
  },
  {
    "id": "cng-d385bd0c",
    "name": "Petrol Pump",
    "latitude": 26.142449,
    "longitude": 91.764592,
    "city": "Guwahati",
    "state": "Assam",
    "source": "cgd_inferred"
  },
  {
    "id": "cng-cb13479e",
    "name": "Petrol Pump",
    "latitude": 26.150964,
    "longitude": 91.78436,
    "city": "Guwahati",
    "state": "Assam",
    "source": "cgd_inferred"
  },
  {
    "id": "cng-ff662bf0",
    "name": "Purba Bharati Gas",
    "latitude": 26.176755,
    "longitude": 91.755299,
    "city": "Guwahati",
    "state": "Assam",
    "source": "cgd_inferred"
  },
  {
    "id": "cng-6d9bda6c",
    "name": "M/S Shahanur Sarker Cng And Filling Station",
    "latitude": 24.318934,
    "longitude": 90.381273,
    "city": "Habirbari",
    "state": "Assam",
    "source": "osm_allstations"
  },
  {
    "id": "cng-42b3a11f",
    "name": "Purbasha Cng Station Ltd.",
    "latitude": 24.294365,
    "longitude": 90.389578,
    "city": "Habirbari",
    "state": "Assam",
    "source": "osm_allstations"
  },
  {
    "id": "cng-a9ae4704",
    "name": "Nahian Cng Filling Station",
    "latitude": 24.177969,
    "longitude": 90.012013,
    "city": "Habla",
    "state": "Assam",
    "source": "osm_allstations"
  },
  {
    "id": "cng-67904115",
    "name": "Nayara",
    "latitude": 24.858806,
    "longitude": 92.493324,
    "city": "Karimganj",
    "state": "Assam",
    "source": "cgd_inferred"
  },
  {
    "id": "cng-0b25e27a",
    "name": "Supatola Cng Filling Station",
    "latitude": 24.81239,
    "longitude": 92.157208,
    "city": "Khodugonj",
    "state": "Assam",
    "source": "osm_allstations"
  },
  {
    "id": "cng-ac1bc94a",
    "name": "Alhaz Nobab Ali Cng And Filling Station, Gas Station",
    "latitude": 24.765766,
    "longitude": 90.292101,
    "city": "Kumarghata",
    "state": "Assam",
    "source": "osm_allstations"
  },
  {
    "id": "cng-55f63858",
    "name": "Alhaz Nobab Ali Cng And Filling Station, Gas Station",
    "latitude": 24.761816,
    "longitude": 90.266797,
    "city": "Kumarghata",
    "state": "Assam",
    "source": "osm_allstations"
  },
  {
    "id": "cng-2a805c0e",
    "name": "Gafargaon - Bhaluka Cng Stand গফরগাঁও - ভালুকা সিএনজি সটযানড",
    "latitude": 24.456591,
    "longitude": 90.545245,
    "city": "Saltia",
    "state": "Assam",
    "source": "osm_allstations"
  },
  {
    "id": "cng-6ff899bc",
    "name": "Cng Station",
    "latitude": 24.788127,
    "longitude": 92.794548,
    "city": "Silchar",
    "state": "Assam",
    "source": "cgd_inferred"
  },
  {
    "id": "cng-b1a63731",
    "name": "Cng Station",
    "latitude": 24.791942,
    "longitude": 92.792672,
    "city": "Silchar",
    "state": "Assam",
    "source": "cgd_inferred"
  },
  {
    "id": "cng-1cc39ae2",
    "name": "Cng Station",
    "latitude": 24.830952,
    "longitude": 92.792213,
    "city": "Silchar",
    "state": "Assam",
    "source": "cgd_inferred"
  },
  {
    "id": "cng-627eafbd",
    "name": "Indian Oil",
    "latitude": 24.828416,
    "longitude": 92.799736,
    "city": "Silchar",
    "state": "Assam",
    "source": "cgd_inferred"
  },
  {
    "id": "cng-9b933190",
    "name": "Indian Oil",
    "latitude": 24.929422,
    "longitude": 92.766483,
    "city": "Silchar",
    "state": "Assam",
    "source": "cgd_inferred"
  },
  {
    "id": "cng-6725ae3e",
    "name": "Gobindaganj Cng/Petrol Station",
    "latitude": 24.930522,
    "longitude": 91.680613,
    "city": "Sunamganj Sylhet Hwy",
    "state": "Assam",
    "source": "osm_allstations"
  },
  {
    "id": "cng-e9a6187f",
    "name": "Cng/Petrol Station",
    "latitude": 24.710786,
    "longitude": 91.739377,
    "city": "Sylhet",
    "state": "Assam",
    "source": "osm_allstations"
  },
  {
    "id": "cng-ff208559",
    "name": "Cng/Petrol Station",
    "latitude": 24.820617,
    "longitude": 91.803499,
    "city": "Sylhet",
    "state": "Assam",
    "source": "osm_allstations"
  },
  {
    "id": "cng-b3db7cd0",
    "name": "Diba Rathri Cng Filling Station",
    "latitude": 24.867095,
    "longitude": 91.856993,
    "city": "Sylhet",
    "state": "Assam",
    "source": "osm_allstations"
  },
  {
    "id": "cng-80a11a69",
    "name": "Hazi Mojnu Miah Cng Filling Station",
    "latitude": 24.86171,
    "longitude": 91.84913,
    "city": "Sylhet",
    "state": "Assam",
    "source": "osm_allstations"
  },
  {
    "id": "cng-151ffd13",
    "name": "Monwar Cng Station",
    "latitude": 24.895237,
    "longitude": 91.894473,
    "city": "Sylhet",
    "state": "Assam",
    "source": "osm_allstations"
  },
  {
    "id": "cng-2b91d4f3",
    "name": "R Rahman Cng Felling Station",
    "latitude": 24.927028,
    "longitude": 91.967792,
    "city": "Sylhet",
    "state": "Assam",
    "source": "osm_allstations"
  },
  {
    "id": "cng-884b8a57",
    "name": "Bharat Petroleum",
    "latitude": 26.65115,
    "longitude": 92.775387,
    "city": "Tezpur",
    "state": "Assam",
    "source": "cgd_inferred"
  },
  {
    "id": "cng-565b6d6a",
    "name": "Hindustan Petroleum",
    "latitude": 26.627712,
    "longitude": 92.796584,
    "city": "Tezpur",
    "state": "Assam",
    "source": "cgd_inferred"
  },
  {
    "id": "cng-cc65dd64",
    "name": "Indian Oil",
    "latitude": 26.638994,
    "longitude": 92.782323,
    "city": "Tezpur",
    "state": "Assam",
    "source": "cgd_inferred"
  },
  {
    "id": "cng-47faf773",
    "name": "Lahkar Petrol Pump",
    "latitude": 26.653073,
    "longitude": 92.795215,
    "city": "Tezpur",
    "state": "Assam",
    "source": "cgd_inferred"
  },
  {
    "id": "cng-428d121a",
    "name": "Shell Petrol Pump",
    "latitude": 26.622022,
    "longitude": 92.848972,
    "city": "Tezpur",
    "state": "Assam",
    "source": "cgd_inferred"
  },
  {
    "id": "cng-94688b8c",
    "name": "মেসারস তালুকদার এল পি জি ফিলিং সটেশন",
    "latitude": 24.867017,
    "longitude": 92.390194,
    "city": "Zakiganj",
    "state": "Assam",
    "source": "cgd_inferred"
  },
  {
    "id": "cng-e5f04a70",
    "name": "Cng Filling Station সিএনজি ফিলিং সটেশন",
    "latitude": 24.312459,
    "longitude": 89.922156,
    "city": "এলেঙ্গা",
    "state": "Assam",
    "source": "osm_allstations"
  },
  {
    "id": "cng-cbd6825d",
    "name": "M/S Sabur & Co. Cng Station এম / এস সবুর এনড কোং সিএনজি সটেশন",
    "latitude": 24.302883,
    "longitude": 89.919285,
    "city": "এলেঙ্গা",
    "state": "Assam",
    "source": "osm_allstations"
  },
  {
    "id": "cng-4e1981e8",
    "name": "Navana Cng Filling Station",
    "latitude": 24.332677,
    "longitude": 89.925322,
    "city": "এলেঙ্গা",
    "state": "Assam",
    "source": "osm_allstations"
  },
  {
    "id": "cng-1388ba43",
    "name": "Samko Cng",
    "latitude": 24.330662,
    "longitude": 89.924651,
    "city": "এলেঙ্গা",
    "state": "Assam",
    "source": "osm_allstations"
  },
  {
    "id": "cng-01b4c47d",
    "name": "Trimatrik Cng Filling Station",
    "latitude": 24.228638,
    "longitude": 89.960696,
    "city": "করটিয়া",
    "state": "Assam",
    "source": "osm_allstations"
  },
  {
    "id": "cng-e40db430",
    "name": "Ajahar Cng Station",
    "latitude": 24.782604,
    "longitude": 90.344691,
    "city": "খাগডহর",
    "state": "Assam",
    "source": "osm_allstations"
  },
  {
    "id": "cng-d681e63d",
    "name": "Korean Cng Station",
    "latitude": 24.282842,
    "longitude": 89.917962,
    "city": "গালা",
    "state": "Assam",
    "source": "osm_allstations"
  },
  {
    "id": "cng-e577fc7f",
    "name": "Unicom Cng Filling Station",
    "latitude": 24.295271,
    "longitude": 89.9182,
    "city": "গালা",
    "state": "Assam",
    "source": "osm_allstations"
  },
  {
    "id": "cng-7c62be58",
    "name": "High Pressure Cng Station, Gas Station",
    "latitude": 24.238359,
    "longitude": 89.9513,
    "city": "ঘারিন্দা",
    "state": "Assam",
    "source": "osm_allstations"
  },
  {
    "id": "cng-295fdd1c",
    "name": "Nitol Cng Filling Station, Gas Station",
    "latitude": 24.241734,
    "longitude": 89.943018,
    "city": "ঘারিন্দা",
    "state": "Assam",
    "source": "osm_allstations"
  },
  {
    "id": "cng-a72bbb8f",
    "name": "Jabed Filling Station",
    "latitude": 24.902222,
    "longitude": 89.95002,
    "city": "জামালপুর",
    "state": "Assam",
    "source": "osm_allstations"
  },
  {
    "id": "cng-0209edd3",
    "name": "Jamalpur Cng Station, Cng Fitment Center",
    "latitude": 24.916589,
    "longitude": 89.966299,
    "city": "জামালপুর",
    "state": "Assam",
    "source": "osm_allstations"
  },
  {
    "id": "cng-e65f5de0",
    "name": "Madani Cng Stations মাদানী সিএনজি সটেশন",
    "latitude": 24.584224,
    "longitude": 90.394828,
    "city": "ত্রিশাল",
    "state": "Assam",
    "source": "osm_allstations"
  },
  {
    "id": "cng-d346161a",
    "name": "Surma Petroleum & Cng Filling Station",
    "latitude": 24.912371,
    "longitude": 91.828178,
    "city": "বরইকান্দি",
    "state": "Assam",
    "source": "osm_allstations"
  },
  {
    "id": "cng-828983ba",
    "name": "Cng Filling Shop, Gas Station",
    "latitude": 24.596628,
    "longitude": 90.025516,
    "city": "মধুপুর",
    "state": "Assam",
    "source": "osm_allstations"
  },
  {
    "id": "cng-4decc3e3",
    "name": "Cng Station Bhaluka To Broad Bazarand Burina",
    "latitude": 24.400292,
    "longitude": 90.38591,
    "city": "মল্লিকবাড়ি",
    "state": "Assam",
    "source": "osm_allstations"
  },
  {
    "id": "cng-0aded12b",
    "name": "Urbi Cng Filling Station",
    "latitude": 24.386786,
    "longitude": 90.377518,
    "city": "মল্লিকবাড়ি",
    "state": "Assam",
    "source": "osm_allstations"
  },
  {
    "id": "cng-c145ed20",
    "name": "Maona Cng Filling Station., Gas Station",
    "latitude": 24.246853,
    "longitude": 90.401306,
    "city": "মাওনা",
    "state": "Assam",
    "source": "osm_allstations"
  },
  {
    "id": "cng-6b3139aa",
    "name": "Moha Cng Filling Station, Gas Station",
    "latitude": 24.215069,
    "longitude": 90.414961,
    "city": "মাওনা",
    "state": "Assam",
    "source": "osm_allstations"
  },
  {
    "id": "cng-933b324b",
    "name": "Palak Cng, Gas Station",
    "latitude": 24.19643,
    "longitude": 90.424775,
    "city": "মাওনা",
    "state": "Assam",
    "source": "osm_allstations"
  },
  {
    "id": "cng-6781652e",
    "name": "Star Filling Station Cng, Gas Station",
    "latitude": 24.212387,
    "longitude": 90.416235,
    "city": "মাওনা",
    "state": "Assam",
    "source": "osm_allstations"
  },
  {
    "id": "cng-4d0a6e1f",
    "name": "Akiz Cng Station, Gas Station",
    "latitude": 24.714865,
    "longitude": 90.4104,
    "city": "শিকারীকান্দা",
    "state": "Assam",
    "source": "osm_allstations"
  },
  {
    "id": "cng-302cd1d2",
    "name": "M/S Reaz Cng & Filling Station",
    "latitude": 24.721475,
    "longitude": 90.408605,
    "city": "শিকারীকান্দা",
    "state": "Assam",
    "source": "osm_allstations"
  },
  {
    "id": "cng-80594949",
    "name": "Ahmed Filling And Cng, Gas Station",
    "latitude": 24.270918,
    "longitude": 90.39576,
    "city": "শ্রীপুর উপজেলা (গাজীপুর)",
    "state": "Assam",
    "source": "osm_allstations"
  },
  {
    "id": "cng-1f40351c",
    "name": "Al-Jalal Cng And Lpg Pump",
    "latitude": 24.89614,
    "longitude": 91.904749,
    "city": "সিলেট",
    "state": "Assam",
    "source": "osm_allstations"
  },
  {
    "id": "cng-a7e54b66",
    "name": "Safatullah Cng & Petrol Station",
    "latitude": 24.91362,
    "longitude": 91.822823,
    "city": "সিলেট",
    "state": "Assam",
    "source": "osm_allstations"
  },
  {
    "id": "cng-a5dc9eb6",
    "name": "Krc Filling & Cng",
    "latitude": 24.123697,
    "longitude": 90.409949,
    "city": "হোতাপাড়া",
    "state": "Assam",
    "source": "osm_allstations"
  }
]
