[
  {
    "id": "cng-ae15583a",
    "name": "A.R. Khan Pathan Cng And Filling Station",
    "latitude": 24.872061,
    "longitude": 90.717465,
    "city": "",
    "state": "Assam",
    "source": "osm",
    "address": "Assam"
  },
  {
    "id": "cng-80594949",
    "name": "Ahmed Filling And Cng, Gas Station",
    "latitude": 24.270918,
    "longitude": 90.39576,
    "city": "",
    "state": "Assam",
    "source": "osm",
    "address": "Assam"
  },
  {
    "id": "cng-e40db430",
    "name": "Ajahar Cng Station",
    "latitude": 24.782604,
    "longitude": 90.344691,
    "city": "",
    "state": "Assam",
    "source": "osm",
    "address": "Assam"
  },
  {
    "id": "cng-4d0a6e1f",
    "name": "Akiz Cng Station, Gas Station",
    "latitude": 24.714865,
    "longitude": 90.4104,
    "city": "",
    "state": "Assam",
    "source": "osm",
    "address": "Assam"
  },
  {
    "id": "cng-1f40351c",
    "name": "Al-Jalal Cng And Lpg Pump",
    "latitude": 24.89614,
    "longitude": 91.904749,
    "city": "",
    "state": "Assam",
    "source": "osm",
    "address": "Assam"
  },
  {
    "id": "cng-ac1bc94a",
    "name": "Alhaz Nobab Ali Cng And Filling Station, Gas Station",
    "latitude": 24.765766,
    "longitude": 90.292101,
    "city": "",
    "state": "Assam",
    "source": "osm",
    "address": "Assam"
  },
  {
    "id": "cng-55f63858",
    "name": "Alhaz Nobab Ali Cng And Filling Station, Gas Station",
    "latitude": 24.761816,
    "longitude": 90.266797,
    "city": "",
    "state": "Assam",
    "source": "osm",
    "address": "Assam"
  },
  {
    "id": "cng-828983ba",
    "name": "Cng Filling Shop, Gas Station",
    "latitude": 24.596628,
    "longitude": 90.025516,
    "city": "",
    "state": "Assam",
    "source": "osm",
    "address": "Assam"
  },
  {
    "id": "cng-e5f04a70",
    "name": "Cng Filling Station সিএনজি ফিলিং সটেশন",
    "latitude": 24.312459,
    "longitude": 89.922156,
    "city": "",
    "state": "Assam",
    "source": "osm",
    "address": "Assam"
  },
  {
    "id": "cng-4decc3e3",
    "name": "Cng Station Bhaluka To Broad Bazarand Burina",
    "latitude": 24.400292,
    "longitude": 90.38591,
    "city": "",
    "state": "Assam",
    "source": "osm",
    "address": "Assam"
  },
  {
    "id": "cng-2a805c0e",
    "name": "Gafargaon - Bhaluka Cng Stand গফরগাঁও - ভালুকা সিএনজি সটযানড",
    "latitude": 24.456591,
    "longitude": 90.545245,
    "city": "",
    "state": "Assam",
    "source": "osm",
    "address": "Assam"
  },
  {
    "id": "cng-9d84d8f2",
    "name": "Gafargaon/Bhaluka Cng Station",
    "latitude": 24.416131,
    "longitude": 90.651582,
    "city": "",
    "state": "Assam",
    "source": "osm",
    "address": "Assam"
  },
  {
    "id": "cng-d431bc69",
    "name": "Hazrat Raypuri Cng Filling Station, Gas Station",
    "latitude": 24.84527,
    "longitude": 92.160808,
    "city": "",
    "state": "Assam",
    "source": "osm",
    "address": "Assam"
  },
  {
    "id": "cng-7c62be58",
    "name": "High Pressure Cng Station, Gas Station",
    "latitude": 24.238359,
    "longitude": 89.9513,
    "city": "",
    "state": "Assam",
    "source": "osm",
    "address": "Assam"
  },
  {
    "id": "cng-a72bbb8f",
    "name": "Jabed Filling Station",
    "latitude": 24.902222,
    "longitude": 89.95002,
    "city": "",
    "state": "Assam",
    "source": "osm",
    "address": "Assam"
  },
  {
    "id": "cng-0209edd3",
    "name": "Jamalpur Cng Station, Cng Fitment Center",
    "latitude": 24.916589,
    "longitude": 89.966299,
    "city": "",
    "state": "Assam",
    "source": "osm",
    "address": "Assam"
  },
  {
    "id": "cng-d681e63d",
    "name": "Korean Cng Station",
    "latitude": 24.282842,
    "longitude": 89.917962,
    "city": "",
    "state": "Assam",
    "source": "osm",
    "address": "Assam"
  },
  {
    "id": "cng-a5dc9eb6",
    "name": "Krc Filling & Cng",
    "latitude": 24.123697,
    "longitude": 90.409949,
    "city": "",
    "state": "Assam",
    "source": "osm",
    "address": "Assam"
  },
  {
    "id": "cng-302cd1d2",
    "name": "M/S Reaz Cng & Filling Station",
    "latitude": 24.721475,
    "longitude": 90.408605,
    "city": "",
    "state": "Assam",
    "source": "osm",
    "address": "Assam"
  },
  {
    "id": "cng-cbd6825d",
    "name": "M/S Sabur & Co. Cng Station এম / এস সবুর এনড কোং সিএনজি সটেশন",
    "latitude": 24.302883,
    "longitude": 89.919285,
    "city": "",
    "state": "Assam",
    "source": "osm",
    "address": "Assam"
  },
  {
    "id": "cng-6d9bda6c",
    "name": "M/S Shahanur Sarker Cng And Filling Station",
    "latitude": 24.318934,
    "longitude": 90.381273,
    "city": "",
    "state": "Assam",
    "source": "osm",
    "address": "Assam"
  },
  {
    "id": "cng-e65f5de0",
    "name": "Madani Cng Stations মাদানী সিএনজি সটেশন",
    "latitude": 24.584224,
    "longitude": 90.394828,
    "city": "",
    "state": "Assam",
    "source": "osm",
    "address": "Assam",
    "operator": "Adani"
  },
  {
    "id": "cng-9869c14d",
    "name": "Mahmud Cng Filling Station Mosque, Mosque",
    "latitude": 24.816407,
    "longitude": 92.155655,
    "city": "",
    "state": "Assam",
    "source": "osm",
    "address": "Assam"
  },
  {
    "id": "cng-c145ed20",
    "name": "Maona Cng Filling Station., Gas Station",
    "latitude": 24.246853,
    "longitude": 90.401306,
    "city": "",
    "state": "Assam",
    "source": "osm",
    "address": "Assam"
  },
  {
    "id": "cng-6b3139aa",
    "name": "Moha Cng Filling Station, Gas Station",
    "latitude": 24.215069,
    "longitude": 90.414961,
    "city": "",
    "state": "Assam",
    "source": "osm",
    "address": "Assam"
  },
  {
    "id": "cng-7168b8a5",
    "name": "Mymensingh Cng Auto-Rickshaw Station",
    "latitude": 24.74761,
    "longitude": 90.421016,
    "city": "",
    "state": "Assam",
    "source": "osm",
    "address": "Assam"
  },
  {
    "id": "cng-a9ae4704",
    "name": "Nahian Cng Filling Station",
    "latitude": 24.177969,
    "longitude": 90.012013,
    "city": "",
    "state": "Assam",
    "source": "osm",
    "address": "Assam"
  },
  {
    "id": "cng-4e1981e8",
    "name": "Navana Cng Filling Station",
    "latitude": 24.332677,
    "longitude": 89.925322,
    "city": "",
    "state": "Assam",
    "source": "osm",
    "address": "Assam"
  },
  {
    "id": "cng-295fdd1c",
    "name": "Nitol Cng Filling Station, Gas Station",
    "latitude": 24.241734,
    "longitude": 89.943018,
    "city": "",
    "state": "Assam",
    "source": "osm",
    "address": "Assam"
  },
  {
    "id": "cng-9481cc59",
    "name": "Noorjahan Cng Filling Station",
    "latitude": 24.865634,
    "longitude": 92.02555,
    "city": "",
    "state": "Assam",
    "source": "osm",
    "address": "Assam"
  },
  {
    "id": "cng-933b324b",
    "name": "Palak Cng, Gas Station",
    "latitude": 24.19643,
    "longitude": 90.424775,
    "city": "",
    "state": "Assam",
    "source": "osm",
    "address": "Assam"
  },
  {
    "id": "cng-42b3a11f",
    "name": "Purbasha Cng Station Ltd.",
    "latitude": 24.294365,
    "longitude": 90.389578,
    "city": "",
    "state": "Assam",
    "source": "osm",
    "address": "Assam"
  },
  {
    "id": "cng-a7e54b66",
    "name": "Safatullah Cng & Petrol Station",
    "latitude": 24.91362,
    "longitude": 91.822823,
    "city": "",
    "state": "Assam",
    "source": "osm",
    "address": "Assam"
  },
  {
    "id": "cng-1388ba43",
    "name": "Samko Cng",
    "latitude": 24.330662,
    "longitude": 89.924651,
    "city": "",
    "state": "Assam",
    "source": "osm",
    "address": "Assam"
  },
  {
    "id": "cng-5837e06d",
    "name": "Sns Cng Station Haker Pin এসএনএস সিএনজি সটেশন কার পিন",
    "latitude": 24.423988,
    "longitude": 90.388153,
    "city": "",
    "state": "Assam",
    "source": "osm",
    "address": "Assam"
  },
  {
    "id": "cng-6781652e",
    "name": "Star Filling Station Cng, Gas Station",
    "latitude": 24.212387,
    "longitude": 90.416235,
    "city": "",
    "state": "Assam",
    "source": "osm",
    "address": "Assam"
  },
  {
    "id": "cng-0b25e27a",
    "name": "Supatola Cng Filling Station",
    "latitude": 24.81239,
    "longitude": 92.157208,
    "city": "",
    "state": "Assam",
    "source": "osm",
    "address": "Assam"
  },
  {
    "id": "cng-d346161a",
    "name": "Surma Petroleum & Cng Filling Station",
    "latitude": 24.912371,
    "longitude": 91.828178,
    "city": "",
    "state": "Assam",
    "source": "osm",
    "address": "Assam"
  },
  {
    "id": "cng-01b4c47d",
    "name": "Trimatrik Cng Filling Station",
    "latitude": 24.228638,
    "longitude": 89.960696,
    "city": "",
    "state": "Assam",
    "source": "osm",
    "address": "Assam"
  },
  {
    "id": "cng-e577fc7f",
    "name": "Unicom Cng Filling Station",
    "latitude": 24.295271,
    "longitude": 89.9182,
    "city": "",
    "state": "Assam",
    "source": "osm",
    "address": "Assam"
  },
  {
    "id": "cng-0aded12b",
    "name": "Urbi Cng Filling Station",
    "latitude": 24.386786,
    "longitude": 90.377518,
    "city": "",
    "state": "Assam",
    "source": "osm",
    "address": "Assam"
  },
  {
    "id": "cng-6725ae3e",
    "name": "Gobindaganj Cng/Petrol Station",
    "latitude": 24.930522,
    "longitude": 91.680613,
    "city": "Sunamganj Sylhet Hwy",
    "state": "Assam",
    "source": "osm",
    "address": "Sunamganj - Sylhet Highway, Sunamganj Sylhet Hwy, Assam"
  },
  {
    "id": "cng-e9a6187f",
    "name": "Cng/Petrol Station",
    "latitude": 24.710786,
    "longitude": 91.739377,
    "city": "Sylhet",
    "state": "Assam",
    "source": "osm",
    "address": "Sylhet, Assam"
  },
  {
    "id": "cng-ff208559",
    "name": "Cng/Petrol Station",
    "latitude": 24.820617,
    "longitude": 91.803499,
    "city": "Sylhet",
    "state": "Assam",
    "source": "osm",
    "address": "Sylhet, Assam"
  },
  {
    "id": "cng-b3db7cd0",
    "name": "Diba Rathri Cng Filling Station",
    "latitude": 24.867095,
    "longitude": 91.856993,
    "city": "Sylhet",
    "state": "Assam",
    "source": "osm",
    "address": "Sylhet, Assam"
  },
  {
    "id": "cng-80a11a69",
    "name": "Hazi Mojnu Miah Cng Filling Station",
    "latitude": 24.86171,
    "longitude": 91.84913,
    "city": "Sylhet",
    "state": "Assam",
    "source": "osm",
    "address": "Sylhet, Assam"
  },
  {
    "id": "cng-151ffd13",
    "name": "Monwar Cng Station",
    "latitude": 24.895237,
    "longitude": 91.894473,
    "city": "Sylhet",
    "state": "Assam",
    "source": "osm",
    "address": "Sylhet, Assam"
  },
  {
    "id": "cng-2b91d4f3",
    "name": "R Rahman Cng Felling Station",
    "latitude": 24.927028,
    "longitude": 91.967792,
    "city": "Sylhet",
    "state": "Assam",
    "source": "osm",
    "address": "Sylhet, Assam"
  }
]
