[
  {
    "id": "cng-3e6bf1e9",
    "name": "E. Nasservanji Petrol Pump",
    "latitude": 20.417342,
    "longitude": 72.838998,
    "city": "",
    "state": "Daman and Diu",
    "source": "osm_allstations"
  },
  {
    "id": "cng-9b2a7690",
    "name": "Naresh Desai Cng Pump",
    "latitude": 20.321529,
    "longitude": 72.902689,
    "city": "",
    "state": "Daman and Diu",
    "source": "osm_allstations"
  },
  {
    "id": "cng-cf72d100",
    "name": "Petrol Pump Station",
    "latitude": 20.398828,
    "longitude": 72.831803,
    "city": "",
    "state": "Daman and Diu",
    "source": "all_india_fuel"
  },
  {
    "id": "cng-705f187d",
    "name": "Sagar Petroleum",
    "latitude": 20.420405,
    "longitude": 72.837262,
    "city": "",
    "state": "Daman and Diu",
    "source": "all_india_fuel"
  },
  {
    "id": "cng-50858423",
    "name": "Ratan Petroleum",
    "latitude": 20.328918,
    "longitude": 72.966085,
    "city": "Dadra and Nagar Haveli",
    "state": "Daman and Diu",
    "source": "gujarat_gas"
  },
  {
    "id": "cng-b547a324",
    "name": "Bharat Petroleum",
    "latitude": 20.545811,
    "longitude": 72.958113,
    "city": "Valsad",
    "state": "Daman and Diu",
    "source": "cgd_inferred"
  },
  {
    "id": "cng-55a2d1a5",
    "name": "Gujarat Gas (Vapi Gsrtc Premises)",
    "latitude": 20.373548,
    "longitude": 72.908438,
    "city": "Valsad",
    "state": "Daman and Diu",
    "source": "gujarat_gas"
  },
  {
    "id": "cng-2c850529",
    "name": "Hp Gas Station",
    "latitude": 20.511241,
    "longitude": 72.944923,
    "city": "Valsad",
    "state": "Daman and Diu",
    "source": "cgd_inferred"
  },
  {
    "id": "cng-b90baa12",
    "name": "Hpcl Coco (Gundlav)",
    "latitude": 20.615464,
    "longitude": 72.930578,
    "city": "Valsad",
    "state": "Daman and Diu",
    "source": "gujarat_gas"
  },
  {
    "id": "cng-cbfa4b5c",
    "name": "Indian Oil",
    "latitude": 20.589926,
    "longitude": 72.952037,
    "city": "Valsad",
    "state": "Daman and Diu",
    "source": "cgd_inferred"
  },
  {
    "id": "cng-d4378975",
    "name": "Shree Bhavani Auto Traders",
    "latitude": 20.513794,
    "longitude": 72.92422,
    "city": "Valsad",
    "state": "Daman and Diu",
    "source": "gujarat_gas"
  },
  {
    "id": "cng-2f4dc34d",
    "name": "Shree Mohaneshwar Gasoline",
    "latitude": 20.373658,
    "longitude": 72.850771,
    "city": "Valsad",
    "state": "Daman and Diu",
    "source": "gujarat_gas"
  },
  {
    "id": "cng-b960e131",
    "name": "Universal Filling",
    "latitude": 20.555529,
    "longitude": 72.915895,
    "city": "Valsad",
    "state": "Daman and Diu",
    "source": "gujarat_gas"
  },
  {
    "id": "cng-8b72e82d",
    "name": "Bharat Petroleum",
    "latitude": 20.401034,
    "longitude": 72.888279,
    "city": "Vapi/Umbergaon",
    "state": "Daman and Diu",
    "source": "cgd_inferred"
  },
  {
    "id": "cng-8206fdfd",
    "name": "Bharat Petroleum",
    "latitude": 20.407168,
    "longitude": 72.8849,
    "city": "Vapi/Umbergaon",
    "state": "Daman and Diu",
    "source": "cgd_inferred"
  },
  {
    "id": "cng-f038aac6",
    "name": "Hp",
    "latitude": 20.331125,
    "longitude": 72.872493,
    "city": "Vapi/Umbergaon",
    "state": "Daman and Diu",
    "source": "cgd_inferred"
  },
  {
    "id": "cng-d43c9d98",
    "name": "भारत पेटरोल पमप",
    "latitude": 20.476228,
    "longitude": 72.930649,
    "city": "Vapi/Umbergaon",
    "state": "Daman and Diu",
    "source": "cgd_inferred"
  }
]
