[
  {
    "id": "cng-2cf41c92",
    "name": "Indian Oil",
    "latitude": 25.261466,
    "longitude": 94.015685,
    "city": "",
    "state": "Manipur",
    "source": "all_india_fuel"
  },
  {
    "id": "cng-2cb49575",
    "name": "M/S Bitej Gasoline Centre",
    "latitude": 24.61282,
    "longitude": 93.761796,
    "city": "",
    "state": "Manipur",
    "source": "all_india_fuel"
  },
  {
    "id": "cng-59b79e7b",
    "name": "Assam Oil",
    "latitude": 24.795362,
    "longitude": 93.940457,
    "city": "Imphal",
    "state": "Manipur",
    "source": "cgd_inferred"
  },
  {
    "id": "cng-edd3bb6f",
    "name": "Cng Station",
    "latitude": 24.78041,
    "longitude": 93.913568,
    "city": "Imphal",
    "state": "Manipur",
    "source": "cgd_inferred"
  },
  {
    "id": "cng-307808ad",
    "name": "Cng Station",
    "latitude": 24.795216,
    "longitude": 93.888848,
    "city": "Imphal",
    "state": "Manipur",
    "source": "cgd_inferred"
  },
  {
    "id": "cng-3a0a3a04",
    "name": "Indian Oil",
    "latitude": 24.827632,
    "longitude": 93.944785,
    "city": "Imphal",
    "state": "Manipur",
    "source": "cgd_inferred"
  },
  {
    "id": "cng-ee82bcdc",
    "name": "Indian Oil",
    "latitude": 24.833367,
    "longitude": 93.944763,
    "city": "Imphal",
    "state": "Manipur",
    "source": "cgd_inferred"
  },
  {
    "id": "cng-b439e8e8",
    "name": "Indian Oil",
    "latitude": 24.795237,
    "longitude": 93.92981,
    "city": "Imphal",
    "state": "Manipur",
    "source": "cgd_inferred"
  },
  {
    "id": "cng-bc4fb9e1",
    "name": "Kusum Petrol Pump",
    "latitude": 24.803036,
    "longitude": 93.950825,
    "city": "Imphal",
    "state": "Manipur",
    "source": "cgd_inferred"
  },
  {
    "id": "cng-f3ae36a6",
    "name": "Nrl Petrol Pump",
    "latitude": 24.817374,
    "longitude": 93.955941,
    "city": "Imphal",
    "state": "Manipur",
    "source": "cgd_inferred"
  },
  {
    "id": "cng-be67c31e",
    "name": "Porompat Petrol Pump",
    "latitude": 24.807547,
    "longitude": 93.956716,
    "city": "Imphal",
    "state": "Manipur",
    "source": "cgd_inferred"
  },
  {
    "id": "cng-b5add6eb",
    "name": "Cng Station",
    "latitude": 25.675699,
    "longitude": 94.086206,
    "city": "Kohima",
    "state": "Manipur",
    "source": "cgd_inferred"
  },
  {
    "id": "cng-2f0a3b52",
    "name": "Cng Station",
    "latitude": 25.666421,
    "longitude": 94.088328,
    "city": "Kohima",
    "state": "Manipur",
    "source": "cgd_inferred"
  },
  {
    "id": "cng-09109105",
    "name": "Cng Station",
    "latitude": 25.668123,
    "longitude": 94.091359,
    "city": "Kohima",
    "state": "Manipur",
    "source": "cgd_inferred"
  },
  {
    "id": "cng-32d16b6e",
    "name": "Cng Station",
    "latitude": 25.653931,
    "longitude": 94.099433,
    "city": "Kohima",
    "state": "Manipur",
    "source": "cgd_inferred"
  },
  {
    "id": "cng-0ae605bd",
    "name": "Cng Station",
    "latitude": 25.670613,
    "longitude": 94.104288,
    "city": "Kohima",
    "state": "Manipur",
    "source": "cgd_inferred"
  },
  {
    "id": "cng-19c09604",
    "name": "Cng Station",
    "latitude": 25.615108,
    "longitude": 94.116405,
    "city": "Kohima",
    "state": "Manipur",
    "source": "cgd_inferred"
  },
  {
    "id": "cng-f26d27e0",
    "name": "Skv Petrol Pump",
    "latitude": 25.665246,
    "longitude": 94.10115,
    "city": "Kohima",
    "state": "Manipur",
    "source": "cgd_inferred"
  }
]
