[
  {
    "id": "cng-fbcfbf64",
    "name": "Cng Station",
    "latitude": 24.406747,
    "longitude": 92.555019,
    "city": "",
    "state": "Mizoram",
    "source": "all_india_fuel"
  },
  {
    "id": "cng-087d1752",
    "name": "Indianoil",
    "latitude": 23.474657,
    "longitude": 93.315781,
    "city": "",
    "state": "Mizoram",
    "source": "all_india_fuel"
  },
  {
    "id": "cng-f7f4ac61",
    "name": "Cng Station",
    "latitude": 23.735031,
    "longitude": 92.839223,
    "city": "Aizawl",
    "state": "Mizoram",
    "source": "cgd_inferred"
  },
  {
    "id": "cng-402d6f99",
    "name": "Indian Oil",
    "latitude": 23.72616,
    "longitude": 92.718567,
    "city": "Aizawl",
    "state": "Mizoram",
    "source": "cgd_inferred"
  },
  {
    "id": "cng-e1e7daf1",
    "name": "Petrol Pump",
    "latitude": 23.793898,
    "longitude": 92.669093,
    "city": "Aizawl",
    "state": "Mizoram",
    "source": "cgd_inferred"
  }
]
