[
  {
    "id": "cng-e7c4f0c5",
    "name": "Bharat Petroleum",
    "latitude": 27.218283,
    "longitude": 78.099432,
    "city": "",
    "state": "Uttar Pradesh",
    "source": "osm",
    "address": "Uttar Pradesh"
  },
  {
    "id": "cng-b945f49f",
    "name": "Cng Indian Oil",
    "latitude": 26.899998,
    "longitude": 81.333787,
    "city": "",
    "state": "Uttar Pradesh",
    "source": "osm",
    "address": "Uttar Pradesh"
  },
  {
    "id": "cng-c6b10cd2",
    "name": "Gail India Ltd. Cng Station",
    "latitude": 25.286496,
    "longitude": 82.968651,
    "city": "",
    "state": "Uttar Pradesh",
    "source": "osm",
    "address": "Uttar Pradesh",
    "operator": "GAIL"
  },
  {
    "id": "cng-0f43a8a9",
    "name": "Igl",
    "latitude": 28.613825,
    "longitude": 77.610141,
    "city": "",
    "state": "Uttar Pradesh",
    "source": "osm",
    "address": "Uttar Pradesh",
    "operator": "IGL"
  },
  {
    "id": "cng-aeacd7e8",
    "name": "Igl-Cng Station",
    "latitude": 28.446122,
    "longitude": 77.543288,
    "city": "",
    "state": "Uttar Pradesh",
    "source": "osm",
    "address": "Uttar Pradesh",
    "operator": "IGL"
  },
  {
    "id": "cng-010cef85",
    "name": "Indian Oil",
    "latitude": 28.385759,
    "longitude": 79.435676,
    "city": "",
    "state": "Uttar Pradesh",
    "source": "osm",
    "address": "Uttar Pradesh"
  },
  {
    "id": "cng-bfeae735",
    "name": "Indian Oil",
    "latitude": 28.375683,
    "longitude": 79.43336,
    "city": "",
    "state": "Uttar Pradesh",
    "source": "osm",
    "address": "Uttar Pradesh"
  },
  {
    "id": "cng-17c34dee",
    "name": "Bharat Petroleum",
    "latitude": 26.220671,
    "longitude": 81.255182,
    "city": "Raebareli",
    "state": "Uttar Pradesh",
    "source": "osm",
    "address": "Lucknow Road, Raebareli, Uttar Pradesh"
  },
  {
    "id": "cng-a7944781",
    "name": "Indianoil",
    "latitude": 24.542602,
    "longitude": 81.292618,
    "city": "Rewa",
    "state": "Uttar Pradesh",
    "source": "osm",
    "address": "Old Bus Stand Road, Rewa, Uttar Pradesh"
  }
]
